[ {
  "date" : "20140714",
  "segments" : [ {
    "type" : "place",
    "startTime" : "20140713T210217-0500",
    "endTime" : "20140714T110007-0500",
    "place" : {
      "id" : 28892305,
      "name" : "Laura's Home",
      "type" : "home",
      "location" : {
        "lat" : 38.9219057145,
        "lon" : -77.0772744833
      }
    },
    "lastUpdate" : "20140714T200246Z"
  }, {
    "type" : "place",
    "startTime" : "20140714T121154-0500",
    "endTime" : "20140714T125915-0500",
    "place" : {
      "id" : 39273790,
      "name" : "Ceiba",
      "type" : "foursquare",
      "foursquareId" : "4a00a24cf964a5209e701fe3",
      "foursquareCategoryIds" : [ "4bf58dd8d48988d1be941735" ],
      "location" : {
        "lat" : 38.89833630275513,
        "lon" : -77.03193062942098
      }
    },
    "lastUpdate" : "20140714T200246Z"
  }, {
    "type" : "place",
    "startTime" : "20140714T130634-0500",
    "endTime" : "20140714T170742-0500",
    "place" : {
      "id" : 20153159,
      "name" : "NTN24",
      "type" : "foursquare",
      "foursquareId" : "4ec5b4b38b81dcfdc16568d3",
      "foursquareCategoryIds" : [ "4bf58dd8d48988d124941735" ],
      "location" : {
        "lat" : 38.901567,
        "lon" : -77.032106
      }
    },
    "lastUpdate" : "20140717T154757Z"
  }, {
    "type" : "place",
    "startTime" : "20140714T174257-0500",
    "endTime" : "20140714T180745-0500",
    "place" : {
      "id" : 19912218,
      "name" : "Safeway",
      "type" : "foursquare",
      "foursquareId" : "4bb614dc2f70c9b656d68430",
      "foursquareCategoryIds" : [ "4bf58dd8d48988d118951735", "4bf58dd8d48988d1c9941735", "4bf58dd8d48988d10f951735" ],
      "location" : {
        "lat" : 38.91567980755536,
        "lon" : -77.06758975982666
      }
    },
    "lastUpdate" : "20140715T013847Z"
  }, {
    "type" : "place",
    "startTime" : "20140714T181951-0500",
    "endTime" : "20140715T080222-0500",
    "place" : {
      "id" : 28892305,
      "name" : "Laura's Home",
      "type" : "home",
      "location" : {
        "lat" : 38.9219057145,
        "lon" : -77.0772744833
      }
    },
    "lastUpdate" : "20140715T174412Z"
  } ],
  "lastUpdate" : "20140717T154757Z"
}, {
  "date" : "20140715",
  "segments" : [ {
    "type" : "place",
    "startTime" : "20140714T181951-0500",
    "endTime" : "20140715T080222-0500",
    "place" : {
      "id" : 28892305,
      "name" : "Laura's Home",
      "type" : "home",
      "location" : {
        "lat" : 38.9219057145,
        "lon" : -77.0772744833
      }
    },
    "lastUpdate" : "20140715T174412Z"
  }, {
    "type" : "place",
    "startTime" : "20140715T080739-0500",
    "endTime" : "20140715T081711-0500",
    "place" : {
      "id" : 13438780,
      "name" : "WMATA Bus Stop #1001805 (31, 32, 36)",
      "type" : "foursquare",
      "foursquareId" : "4e9b7ac54901d3b0b7587b98",
      "foursquareCategoryIds" : [ "4bf58dd8d48988d12b951735" ],
      "location" : {
        "lat" : 38.92229853987276,
        "lon" : -77.07277336996707
      }
    },
    "lastUpdate" : "20140715T174412Z"
  }, {
    "type" : "place",
    "startTime" : "20140715T084848-0500",
    "endTime" : "20140715T112409-0500",
    "place" : {
      "id" : 71548075,
      "name" : "Starbucks",
      "type" : "foursquare",
      "foursquareId" : "4af5b4c8f964a520a6fb21e3",
      "foursquareCategoryIds" : [ "4bf58dd8d48988d1e0931735" ],
      "location" : {
        "lat" : 38.89947134437488,
        "lon" : -77.03195312062199
      }
    },
    "lastUpdate" : "20140717T154716Z"
  }, {
    "type" : "place",
    "startTime" : "20140715T113752-0500",
    "endTime" : "20140715T114221-0500",
    "place" : {
      "id" : 61766445,
      "name" : "Eat at National Place",
      "type" : "foursquare",
      "foursquareId" : "4b607467f964a520f1e629e3",
      "foursquareCategoryIds" : [ "4bf58dd8d48988d120951735" ],
      "location" : {
        "lat" : 38.89736635211879,
        "lon" : -77.03016505709523
      }
    },
    "lastUpdate" : "20140715T174412Z"
  }, {
    "type" : "place",
    "startTime" : "20140715T115547-0500",
    "endTime" : "20140715T130915-0500",
    "place" : {
      "id" : 20153159,
      "name" : "NTN24",
      "type" : "foursquare",
      "foursquareId" : "4ec5b4b38b81dcfdc16568d3",
      "foursquareCategoryIds" : [ "4bf58dd8d48988d124941735" ],
      "location" : {
        "lat" : 38.901567,
        "lon" : -77.032106
      }
    },
    "lastUpdate" : "20140717T154757Z"
  }, {
    "type" : "place",
    "startTime" : "20140715T132306-0500",
    "endTime" : "20140715T175141-0500",
    "place" : {
      "id" : 20153159,
      "name" : "NTN24",
      "type" : "foursquare",
      "foursquareId" : "4ec5b4b38b81dcfdc16568d3",
      "foursquareCategoryIds" : [ "4bf58dd8d48988d124941735" ],
      "location" : {
        "lat" : 38.901567,
        "lon" : -77.032106
      }
    },
    "lastUpdate" : "20140717T154759Z"
  }, {
    "type" : "place",
    "startTime" : "20140715T183455-0500",
    "endTime" : "20140716T080939-0500",
    "place" : {
      "id" : 28892305,
      "name" : "Laura's Home",
      "type" : "home",
      "location" : {
        "lat" : 38.9219057145,
        "lon" : -77.0772744833
      }
    },
    "lastUpdate" : "20140716T144811Z"
  } ],
  "lastUpdate" : "20140717T154759Z"
}, {
  "date" : "20140716",
  "segments" : [ {
    "type" : "place",
    "startTime" : "20140715T183455-0500",
    "endTime" : "20140716T080939-0500",
    "place" : {
      "id" : 28892305,
      "name" : "Laura's Home",
      "type" : "home",
      "location" : {
        "lat" : 38.9219057145,
        "lon" : -77.0772744833
      }
    },
    "lastUpdate" : "20140716T144811Z"
  }, {
    "type" : "place",
    "startTime" : "20140716T081803-0500",
    "endTime" : "20140716T082656-0500",
    "place" : {
      "id" : 12721207,
      "name" : "Whole Foods Market",
      "type" : "foursquare",
      "foursquareId" : "4aad58b8f964a520d25f20e3",
      "foursquareCategoryIds" : [ "4bf58dd8d48988d118951735", "4bf58dd8d48988d1d3941735", "4bf58dd8d48988d16a941735" ],
      "location" : {
        "lat" : 38.920938,
        "lon" : -77.071804
      }
    },
    "lastUpdate" : "20141219T222326Z"
  }, {
    "type" : "place",
    "startTime" : "20140716T083811-0500",
    "endTime" : "20140716T121114-0500",
    "place" : {
      "id" : 28892305,
      "name" : "Laura's Home",
      "type" : "home",
      "location" : {
        "lat" : 38.9219057145,
        "lon" : -77.0772744833
      }
    },
    "lastUpdate" : "20140716T225250Z"
  }, {
    "type" : "place",
    "startTime" : "20140716T125024-0500",
    "endTime" : "20140716T125843-0500",
    "place" : {
      "id" : 20153159,
      "name" : "NTN24",
      "type" : "foursquare",
      "foursquareId" : "4ec5b4b38b81dcfdc16568d3",
      "foursquareCategoryIds" : [ "4bf58dd8d48988d124941735" ],
      "location" : {
        "lat" : 38.901567,
        "lon" : -77.032106
      }
    },
    "lastUpdate" : "20140717T154757Z"
  }, {
    "type" : "place",
    "startTime" : "20140716T130622-0500",
    "endTime" : "20140716T134833-0500",
    "place" : {
      "id" : 71964246,
      "name" : "The Willard Intercontinental",
      "type" : "foursquare",
      "foursquareId" : "4aa978f7f964a520d75320e3",
      "foursquareCategoryIds" : [ "4bf58dd8d48988d1fa931735" ],
      "location" : {
        "lat" : 38.89644436007552,
        "lon" : -77.03223426028174
      }
    },
    "lastUpdate" : "20140716T234010Z"
  }, {
    "type" : "place",
    "startTime" : "20140716T135653-0500",
    "endTime" : "20140716T182923-0500",
    "place" : {
      "id" : 20153159,
      "name" : "NTN24",
      "type" : "foursquare",
      "foursquareId" : "4ec5b4b38b81dcfdc16568d3",
      "foursquareCategoryIds" : [ "4bf58dd8d48988d124941735" ],
      "location" : {
        "lat" : 38.901567,
        "lon" : -77.032106
      }
    },
    "lastUpdate" : "20140717T154758Z"
  }, {
    "type" : "place",
    "startTime" : "20140716T183642-0500",
    "endTime" : "20140716T190611-0500",
    "place" : {
      "id" : 39273790,
      "name" : "Ceiba",
      "type" : "foursquare",
      "foursquareId" : "4a00a24cf964a5209e701fe3",
      "foursquareCategoryIds" : [ "4bf58dd8d48988d1be941735" ],
      "location" : {
        "lat" : 38.89833630275513,
        "lon" : -77.03193062942098
      }
    },
    "lastUpdate" : "20140717T013336Z"
  }, {
    "type" : "place",
    "startTime" : "20140716T191051-0500",
    "endTime" : "20140716T192144-0500",
    "place" : {
      "id" : 71993888,
      "name" : "WMATA Bus Stop #1001060 (11Y, 32, 36)",
      "type" : "foursquare",
      "foursquareId" : "4e7cf2330aafcfb3b125a8aa",
      "foursquareCategoryIds" : [ "4bf58dd8d48988d1fe931735" ],
      "location" : {
        "lat" : 38.899766,
        "lon" : -77.033571
      }
    },
    "lastUpdate" : "20140717T013413Z"
  }, {
    "type" : "place",
    "startTime" : "20140716T195225-0500",
    "endTime" : "20140716T211410-0500",
    "place" : {
      "id" : 28892305,
      "name" : "Laura's Home",
      "type" : "home",
      "location" : {
        "lat" : 38.9219057145,
        "lon" : -77.0772744833
      }
    },
    "lastUpdate" : "20140717T030450Z"
  }, {
    "type" : "place",
    "startTime" : "20140716T213444-0500",
    "endTime" : "20140717T081752-0500",
    "place" : {
      "id" : 28892305,
      "name" : "Laura's Home",
      "type" : "home",
      "location" : {
        "lat" : 38.9219057145,
        "lon" : -77.0772744833
      }
    },
    "lastUpdate" : "20140717T154615Z"
  } ],
  "lastUpdate" : "20141219T222326Z"
}, {
  "date" : "20140717",
  "segments" : [ {
    "type" : "place",
    "startTime" : "20140716T213444-0500",
    "endTime" : "20140717T081752-0500",
    "place" : {
      "id" : 28892305,
      "name" : "Laura's Home",
      "type" : "home",
      "location" : {
        "lat" : 38.9219057145,
        "lon" : -77.0772744833
      }
    },
    "lastUpdate" : "20140717T154615Z"
  }, {
    "type" : "place",
    "startTime" : "20140717T090106-0500",
    "endTime" : "20140717T090727-0500",
    "place" : {
      "id" : 20153159,
      "name" : "NTN24",
      "type" : "foursquare",
      "foursquareId" : "4ec5b4b38b81dcfdc16568d3",
      "foursquareCategoryIds" : [ "4bf58dd8d48988d124941735" ],
      "location" : {
        "lat" : 38.901567,
        "lon" : -77.032106
      }
    },
    "lastUpdate" : "20140717T154757Z"
  }, {
    "type" : "place",
    "startTime" : "20140717T090958-0500",
    "endTime" : "20140717T112000-0500",
    "place" : {
      "id" : 71548075,
      "name" : "Starbucks",
      "type" : "foursquare",
      "foursquareId" : "4af5b4c8f964a520a6fb21e3",
      "foursquareCategoryIds" : [ "4bf58dd8d48988d1e0931735" ],
      "location" : {
        "lat" : 38.89947134437488,
        "lon" : -77.03195312062199
      }
    },
    "lastUpdate" : "20140717T174344Z"
  }, {
    "type" : "place",
    "startTime" : "20140717T113616-0500",
    "endTime" : "20140717T123341-0500",
    "place" : {
      "id" : 72222200,
      "name" : "Noodles On 11",
      "type" : "foursquare",
      "foursquareId" : "4d26254337a1b60cfd0a9db8",
      "foursquareCategoryIds" : [ "4bf58dd8d48988d1d1941735" ],
      "location" : {
        "lat" : 38.900784,
        "lon" : -77.0268
      }
    },
    "lastUpdate" : "20140717T195040Z"
  }, {
    "type" : "place",
    "startTime" : "20140717T124156-0500",
    "endTime" : "20140717T125118-0500",
    "place" : {
      "id" : 20153159,
      "name" : "NTN24",
      "type" : "foursquare",
      "foursquareId" : "4ec5b4b38b81dcfdc16568d3",
      "foursquareCategoryIds" : [ "4bf58dd8d48988d124941735" ],
      "location" : {
        "lat" : 38.901567,
        "lon" : -77.032106
      }
    },
    "lastUpdate" : "20140717T195015Z"
  }, {
    "type" : "place",
    "startTime" : "20140717T130545-0500",
    "endTime" : "20140717T143807-0500",
    "place" : {
      "id" : 72261912,
      "name" : "Hamilton Crowne Plaza",
      "type" : "foursquare",
      "foursquareId" : "4ad0e522f964a520d9da20e3",
      "foursquareCategoryIds" : [ "4bf58dd8d48988d1fa931735" ],
      "location" : {
        "lat" : 38.9028898270868,
        "lon" : -77.03171253204346
      }
    },
    "lastUpdate" : "20140717T215425Z"
  }, {
    "type" : "place",
    "startTime" : "20140717T144447-0500",
    "endTime" : "20140717T180344-0500",
    "place" : {
      "id" : 71548075,
      "name" : "Starbucks",
      "type" : "foursquare",
      "foursquareId" : "4af5b4c8f964a520a6fb21e3",
      "foursquareCategoryIds" : [ "4bf58dd8d48988d1e0931735" ],
      "location" : {
        "lat" : 38.89947134437488,
        "lon" : -77.03195312062199
      }
    },
    "lastUpdate" : "20140717T233946Z"
  }, {
    "type" : "place",
    "startTime" : "20140717T180959-0500",
    "endTime" : "20140717T181750-0500",
    "place" : {
      "id" : 40093140,
      "name" : "A-1 Wines & Liquors",
      "type" : "foursquare",
      "foursquareId" : "4b7b1b41f964a520b7512fe3",
      "foursquareCategoryIds" : [ "4bf58dd8d48988d186941735" ],
      "location" : {
        "lat" : 38.90220518091243,
        "lon" : -77.03282833099365
      }
    },
    "lastUpdate" : "20140717T233946Z"
  }, {
    "type" : "place",
    "startTime" : "20140717T182151-0500",
    "endTime" : "20140717T234429-0500",
    "place" : {
      "id" : 72319962,
      "name" : "NTN24-Washington, DC",
      "type" : "foursquare",
      "foursquareId" : "4ec5b5509a52756c53a0be9c",
      "foursquareCategoryIds" : [ "4bf58dd8d48988d124941735" ],
      "location" : {
        "lat" : 38.900182458396,
        "lon" : -77.03193625222163
      }
    },
    "lastUpdate" : "20140801T212015Z"
  }, {
    "type" : "place",
    "startTime" : "20140717T235838-0500",
    "endTime" : "20140718T100804-0500",
    "place" : {
      "id" : 28892305,
      "name" : "Laura's Home",
      "type" : "home",
      "location" : {
        "lat" : 38.9219057145,
        "lon" : -77.0772744833
      }
    },
    "lastUpdate" : "20140718T202423Z"
  } ],
  "lastUpdate" : "20140801T212015Z"
}, {
  "date" : "20140718",
  "segments" : [ {
    "type" : "place",
    "startTime" : "20140717T235838-0500",
    "endTime" : "20140718T100804-0500",
    "place" : {
      "id" : 28892305,
      "name" : "Laura's Home",
      "type" : "home",
      "location" : {
        "lat" : 38.9219057145,
        "lon" : -77.0772744833
      }
    },
    "lastUpdate" : "20140718T202423Z"
  }, {
    "type" : "place",
    "startTime" : "20140718T104350-0500",
    "endTime" : "20140718T122418-0500",
    "place" : {
      "id" : 72635640,
      "name" : "Starbucks",
      "type" : "foursquare",
      "foursquareId" : "4a9c1b58f964a520fe3520e3",
      "foursquareCategoryIds" : [ "4bf58dd8d48988d1e0931735" ],
      "location" : {
        "lat" : 38.905063,
        "lon" : -77.061918
      }
    },
    "lastUpdate" : "20140718T202444Z"
  }, {
    "type" : "place",
    "startTime" : "20140718T123202-0500",
    "endTime" : "20140718T123559-0500",
    "place" : {
      "id" : 72635551,
      "type" : "unknown",
      "location" : {
        "lat" : 38.9073241143,
        "lon" : -77.0433418465
      }
    },
    "lastUpdate" : "20140718T202423Z"
  }, {
    "type" : "place",
    "startTime" : "20140718T125938-0500",
    "endTime" : "20140718T134123-0500",
    "place" : {
      "id" : 61766445,
      "name" : "Eat at National Place",
      "type" : "foursquare",
      "foursquareId" : "4b607467f964a520f1e629e3",
      "foursquareCategoryIds" : [ "4bf58dd8d48988d120951735" ],
      "location" : {
        "lat" : 38.89736635211879,
        "lon" : -77.03016505709523
      }
    },
    "lastUpdate" : "20140718T202423Z"
  }, {
    "type" : "place",
    "startTime" : "20140718T135102-0500",
    "endTime" : "20140718T145424-0500",
    "place" : {
      "id" : 71548075,
      "name" : "Starbucks",
      "type" : "foursquare",
      "foursquareId" : "4af5b4c8f964a520a6fb21e3",
      "foursquareCategoryIds" : [ "4bf58dd8d48988d1e0931735" ],
      "location" : {
        "lat" : 38.89947134437488,
        "lon" : -77.03195312062199
      }
    },
    "lastUpdate" : "20140719T004658Z"
  }, {
    "type" : "place",
    "startTime" : "20140718T151922-0500",
    "endTime" : "20140718T152533-0500",
    "place" : {
      "id" : 71548075,
      "name" : "Starbucks",
      "type" : "foursquare",
      "foursquareId" : "4af5b4c8f964a520a6fb21e3",
      "foursquareCategoryIds" : [ "4bf58dd8d48988d1e0931735" ],
      "location" : {
        "lat" : 38.89947134437488,
        "lon" : -77.03195312062199
      }
    },
    "lastUpdate" : "20140719T004658Z"
  }, {
    "type" : "place",
    "startTime" : "20140718T152908-0500",
    "endTime" : "20140718T194513-0500",
    "place" : {
      "id" : 72319962,
      "name" : "NTN24-Washington, DC",
      "type" : "foursquare",
      "foursquareId" : "4ec5b5509a52756c53a0be9c",
      "foursquareCategoryIds" : [ "4bf58dd8d48988d124941735" ],
      "location" : {
        "lat" : 38.900182458396,
        "lon" : -77.03193625222163
      }
    },
    "lastUpdate" : "20140801T212015Z"
  }, {
    "type" : "place",
    "startTime" : "20140718T201942-0500",
    "endTime" : "20140719T143241-0500",
    "place" : {
      "id" : 28892305,
      "name" : "Laura's Home",
      "type" : "home",
      "location" : {
        "lat" : 38.9219057145,
        "lon" : -77.0772744833
      }
    },
    "lastUpdate" : "20140720T003502Z"
  } ],
  "lastUpdate" : "20140801T212015Z"
}, {
  "date" : "20140719",
  "segments" : [ {
    "type" : "place",
    "startTime" : "20140718T201942-0500",
    "endTime" : "20140719T143241-0500",
    "place" : {
      "id" : 28892305,
      "name" : "Laura's Home",
      "type" : "home",
      "location" : {
        "lat" : 38.9219057145,
        "lon" : -77.0772744833
      }
    },
    "lastUpdate" : "20140720T003502Z"
  }, {
    "type" : "place",
    "startTime" : "20140719T150905-0500",
    "endTime" : "20140719T152423-0500",
    "place" : {
      "id" : 71030737,
      "name" : "DSW",
      "type" : "foursquare",
      "foursquareId" : "5347077f498e9b34a5c57763",
      "foursquareCategoryIds" : [ "4bf58dd8d48988d107951735" ],
      "location" : {
        "lat" : 38.90502104068193,
        "lon" : -77.0649263407916
      }
    },
    "lastUpdate" : "20140920T205243Z"
  }, {
    "type" : "place",
    "startTime" : "20140719T152837-0500",
    "endTime" : "20140719T154027-0500",
    "place" : {
      "id" : 25822597,
      "name" : "CB2",
      "type" : "foursquare",
      "foursquareId" : "4d2e1c6f79dd6ea8b66786d3",
      "foursquareCategoryIds" : [ "4bf58dd8d48988d1f8941735" ],
      "location" : {
        "lat" : 38.90516808750274,
        "lon" : -77.06643283017698
      }
    },
    "lastUpdate" : "20140720T003502Z"
  }, {
    "type" : "place",
    "startTime" : "20140719T155647-0500",
    "endTime" : "20140719T190744-0500",
    "place" : {
      "id" : 61190913,
      "name" : "Sequoia",
      "type" : "foursquare",
      "foursquareId" : "4b1a9856f964a52010ed23e3",
      "foursquareCategoryIds" : [ "4bf58dd8d48988d14e941735" ],
      "location" : {
        "lat" : 38.90101955850752,
        "lon" : -77.0595645904541
      }
    },
    "lastUpdate" : "20140720T021634Z"
  }, {
    "type" : "place",
    "startTime" : "20140719T193401-0500",
    "endTime" : "20140720T113918-0500",
    "place" : {
      "id" : 28892305,
      "name" : "Laura's Home",
      "type" : "home",
      "location" : {
        "lat" : 38.9219057145,
        "lon" : -77.0772744833
      }
    },
    "lastUpdate" : "20140720T191310Z"
  } ],
  "lastUpdate" : "20140920T205243Z"
}, {
  "date" : "20140720",
  "segments" : [ {
    "type" : "place",
    "startTime" : "20140719T193401-0500",
    "endTime" : "20140720T113918-0500",
    "place" : {
      "id" : 28892305,
      "name" : "Laura's Home",
      "type" : "home",
      "location" : {
        "lat" : 38.9219057145,
        "lon" : -77.0772744833
      }
    },
    "lastUpdate" : "20140720T191310Z"
  }, {
    "type" : "place",
    "startTime" : "20140720T114801-0500",
    "endTime" : "20140720T124030-0500",
    "place" : {
      "id" : 71031011,
      "name" : "Slate Wine Bar",
      "type" : "foursquare",
      "foursquareId" : "4ffc8d11e4b0cb44d9199ae7",
      "foursquareCategoryIds" : [ "4bf58dd8d48988d14e941735" ],
      "location" : {
        "lat" : 38.92110241501491,
        "lon" : -77.07223376255979
      }
    },
    "lastUpdate" : "20140720T191347Z"
  }, {
    "type" : "place",
    "startTime" : "20140720T124321-0500",
    "endTime" : "20140720T125946-0500",
    "place" : {
      "id" : 19912216,
      "name" : "CVS/pharmacy",
      "type" : "foursquare",
      "foursquareId" : "4a89f3c7f964a520790920e3",
      "foursquareCategoryIds" : [ "4bf58dd8d48988d10f951735" ],
      "location" : {
        "lat" : 38.92005,
        "lon" : -77.071487
      }
    },
    "lastUpdate" : "20140720T191311Z"
  }, {
    "type" : "place",
    "startTime" : "20140720T130900-0500",
    "endTime" : "20140720T132447-0500",
    "place" : {
      "id" : 73442637,
      "name" : "Georgetown Flea Market",
      "type" : "foursquare",
      "foursquareId" : "4ac8fed9f964a520dbbd20e3",
      "foursquareCategoryIds" : [ "4bf58dd8d48988d1f7941735" ],
      "location" : {
        "lat" : 38.91581703837272,
        "lon" : -77.06808544984563
      }
    },
    "lastUpdate" : "20140720T191408Z"
  }, {
    "type" : "place",
    "startTime" : "20140720T132937-0500",
    "endTime" : "20140720T143220-0500",
    "place" : {
      "id" : 73442552,
      "name" : "Shanghai Lounge",
      "type" : "foursquare",
      "foursquareId" : "4e285c07d4c0e361d9dd4dab",
      "foursquareCategoryIds" : [ "4bf58dd8d48988d142941735" ],
      "location" : {
        "lat" : 38.9145945983291,
        "lon" : -77.06733783899486
      }
    },
    "lastUpdate" : "20140720T211117Z"
  }, {
    "type" : "place",
    "startTime" : "20140720T143606-0500",
    "endTime" : "20140720T154604-0500",
    "place" : {
      "id" : 19912218,
      "name" : "Safeway",
      "type" : "foursquare",
      "foursquareId" : "4bb614dc2f70c9b656d68430",
      "foursquareCategoryIds" : [ "4bf58dd8d48988d118951735", "4bf58dd8d48988d1c9941735", "4bf58dd8d48988d10f951735" ],
      "location" : {
        "lat" : 38.91567980755536,
        "lon" : -77.06758975982666
      }
    },
    "lastUpdate" : "20140720T235106Z"
  }, {
    "type" : "place",
    "startTime" : "20140720T160745-0500",
    "endTime" : "20140720T165945-0500",
    "place" : {
      "id" : 28892305,
      "name" : "Laura's Home",
      "type" : "home",
      "location" : {
        "lat" : 38.9219057145,
        "lon" : -77.0772744833
      }
    },
    "lastUpdate" : "20140721T012154Z"
  }, {
    "type" : "place",
    "startTime" : "20140720T171812-0500",
    "endTime" : "20140721T075413-0500",
    "place" : {
      "id" : 28892305,
      "name" : "Laura's Home",
      "type" : "home",
      "location" : {
        "lat" : 38.9219057145,
        "lon" : -77.0772744833
      }
    },
    "lastUpdate" : "20140721T154030Z"
  } ],
  "lastUpdate" : "20140721T154030Z"
} ]