[ {
  "date" : "20140210",
  "segments" : [ {
    "type" : "place",
    "startTime" : "20140209T220401-0500",
    "endTime" : "20140210T162756-0500",
    "place" : {
      "id" : 9869005,
      "name" : "Home",
      "type" : "home",
      "location" : {
        "lat" : 42.3754311174,
        "lon" : -71.1114458017
      }
    },
    "lastUpdate" : "20140807T114103Z"
  }, {
    "type" : "place",
    "startTime" : "20140210T165327-0500",
    "endTime" : "20140210T181740-0500",
    "place" : {
      "id" : 24669256,
      "name" : "T3 Innovation Studio",
      "type" : "foursquare",
      "foursquareId" : "520a556611d28b4a76ec352c",
      "foursquareCategoryIds" : [ "4bf58dd8d48988d124941735" ],
      "location" : {
        "lat" : 42.35303956039798,
        "lon" : -71.04524705235535
      }
    },
    "lastUpdate" : "20140211T034614Z"
  }, {
    "type" : "place",
    "startTime" : "20140210T185312-0500",
    "endTime" : "20140211T095442-0500",
    "place" : {
      "id" : 9869005,
      "name" : "Home",
      "type" : "home",
      "location" : {
        "lat" : 42.3754311174,
        "lon" : -71.1114458017
      }
    },
    "lastUpdate" : "20140807T114103Z"
  } ],
  "lastUpdate" : "20140807T114103Z"
}, {
  "date" : "20140211",
  "segments" : [ {
    "type" : "place",
    "startTime" : "20140210T185312-0500",
    "endTime" : "20140211T095442-0500",
    "place" : {
      "id" : 9869005,
      "name" : "Home",
      "type" : "home",
      "location" : {
        "lat" : 42.3754311174,
        "lon" : -71.1114458017
      }
    },
    "lastUpdate" : "20140807T114103Z"
  }, {
    "type" : "place",
    "startTime" : "20140211T100113-0500",
    "endTime" : "20140211T100958-0500",
    "place" : {
      "id" : 24816887,
      "type" : "unknown",
      "location" : {
        "lat" : 42.3770093257,
        "lon" : -71.1168284018
      }
    },
    "lastUpdate" : "20140211T193943Z"
  }, {
    "type" : "place",
    "startTime" : "20140211T101439-0500",
    "endTime" : "20140211T191116-0500",
    "place" : {
      "id" : 10149993,
      "name" : "Proximate",
      "type" : "foursquare",
      "foursquareId" : "51c8c0d1498e5d4d09a48362",
      "foursquareCategoryIds" : [ "4bf58dd8d48988d125941735" ],
      "location" : {
        "lat" : 42.378716,
        "lon" : -71.117205
      }
    },
    "lastUpdate" : "20140813T203053Z"
  }, {
    "type" : "place",
    "startTime" : "20140211T192052-0500",
    "endTime" : "20140212T101021-0500",
    "place" : {
      "id" : 9869005,
      "name" : "Home",
      "type" : "home",
      "location" : {
        "lat" : 42.3754311174,
        "lon" : -71.1114458017
      }
    },
    "lastUpdate" : "20140807T114103Z"
  } ],
  "lastUpdate" : "20140813T203053Z"
}, {
  "date" : "20140212",
  "segments" : [ {
    "type" : "place",
    "startTime" : "20140211T192052-0500",
    "endTime" : "20140212T101021-0500",
    "place" : {
      "id" : 9869005,
      "name" : "Home",
      "type" : "home",
      "location" : {
        "lat" : 42.3754311174,
        "lon" : -71.1114458017
      }
    },
    "lastUpdate" : "20140807T114103Z"
  }, {
    "type" : "place",
    "startTime" : "20140212T103940-0500",
    "endTime" : "20140212T110458-0500",
    "place" : {
      "id" : 24971084,
      "name" : "Amtrak South Station",
      "type" : "foursquare",
      "foursquareId" : "52e42895498eb9e24848960b",
      "foursquareCategoryIds" : [ "4bf58dd8d48988d129951735" ],
      "location" : {
        "lat" : 42.35141860782156,
        "lon" : -71.0551073348505
      }
    },
    "lastUpdate" : "20140329T205628Z"
  }, {
    "type" : "place",
    "startTime" : "20140212T193710-0500",
    "endTime" : "20140212T194259-0500",
    "place" : {
      "id" : 13891031,
      "type" : "unknown",
      "location" : {
        "lat" : 38.8967316187,
        "lon" : -77.0059959584
      }
    },
    "lastUpdate" : "20140213T024856Z"
  }, {
    "type" : "place",
    "startTime" : "20140212T200550-0500",
    "endTime" : "20140212T220324-0500",
    "place" : {
      "id" : 26937822,
      "name" : "2440 39th Street NW",
      "type" : "foursquare",
      "foursquareId" : "520fad54498e47affbce37d4",
      "foursquareCategoryIds" : [ "4bf58dd8d48988d103941735" ],
      "location" : {
        "lat" : 38.92592014653639,
        "lon" : -77.07371486668141
      }
    },
    "lastUpdate" : "20140222T170701Z"
  } ],
  "lastUpdate" : "20140807T114103Z"
}, {
  "date" : "20140213",
  "segments" : [ {
    "type" : "place",
    "startTime" : "20140213T092832-0500",
    "endTime" : "20140213T132631-0500",
    "place" : {
      "id" : 26937744,
      "name" : "2440 39th Street NW",
      "type" : "foursquare",
      "foursquareId" : "520fad54498e47affbce37d4",
      "foursquareCategoryIds" : [ "4bf58dd8d48988d103941735" ],
      "location" : {
        "lat" : 38.92592014653639,
        "lon" : -77.07371486668141
      }
    },
    "lastUpdate" : "20140222T170637Z"
  }, {
    "type" : "place",
    "startTime" : "20140213T133634-0500",
    "endTime" : "20140213T143253-0500",
    "place" : {
      "id" : 12721207,
      "name" : "Whole Foods Market",
      "type" : "foursquare",
      "foursquareId" : "4aad58b8f964a520d25f20e3",
      "foursquareCategoryIds" : [ "4bf58dd8d48988d118951735", "4bf58dd8d48988d1d3941735", "4bf58dd8d48988d16a941735" ],
      "location" : {
        "lat" : 38.920938,
        "lon" : -77.071804
      }
    },
    "lastUpdate" : "20140712T164814Z"
  }, {
    "type" : "place",
    "startTime" : "20140213T144556-0500",
    "endTime" : "20140215T122714-0500",
    "place" : {
      "id" : 26937703,
      "name" : "2440 39th Street NW",
      "type" : "foursquare",
      "foursquareId" : "520fad54498e47affbce37d4",
      "foursquareCategoryIds" : [ "4bf58dd8d48988d103941735" ],
      "location" : {
        "lat" : 38.92592014653639,
        "lon" : -77.07371486668141
      }
    },
    "lastUpdate" : "20140222T170623Z"
  } ],
  "lastUpdate" : "20140712T164814Z"
}, {
  "date" : "20140214",
  "segments" : [ {
    "type" : "place",
    "startTime" : "20140213T144556-0500",
    "endTime" : "20140215T122714-0500",
    "place" : {
      "id" : 26937703,
      "name" : "2440 39th Street NW",
      "type" : "foursquare",
      "foursquareId" : "520fad54498e47affbce37d4",
      "foursquareCategoryIds" : [ "4bf58dd8d48988d103941735" ],
      "location" : {
        "lat" : 38.92592014653639,
        "lon" : -77.07371486668141
      }
    },
    "lastUpdate" : "20140222T170623Z"
  } ],
  "lastUpdate" : "20140222T170623Z"
}, {
  "date" : "20140215",
  "segments" : [ {
    "type" : "place",
    "startTime" : "20140213T144556-0500",
    "endTime" : "20140215T122714-0500",
    "place" : {
      "id" : 26937703,
      "name" : "2440 39th Street NW",
      "type" : "foursquare",
      "foursquareId" : "520fad54498e47affbce37d4",
      "foursquareCategoryIds" : [ "4bf58dd8d48988d103941735" ],
      "location" : {
        "lat" : 38.92592014653639,
        "lon" : -77.07371486668141
      }
    },
    "lastUpdate" : "20140222T170623Z"
  }, {
    "type" : "place",
    "startTime" : "20140215T123506-0500",
    "endTime" : "20140215T124412-0500",
    "place" : {
      "id" : 20430434,
      "name" : "Surfside",
      "type" : "foursquare",
      "foursquareId" : "4a02762ef964a52056711fe3",
      "foursquareCategoryIds" : [ "4bf58dd8d48988d1c1941735", "4bf58dd8d48988d1ce941735", "4bf58dd8d48988d153941735" ],
      "location" : {
        "lat" : 38.92206976004444,
        "lon" : -77.072873711586
      }
    },
    "lastUpdate" : "20140222T170558Z"
  }, {
    "type" : "place",
    "startTime" : "20140215T125232-0500",
    "endTime" : "20140215T160523-0500",
    "place" : {
      "id" : 12428591,
      "type" : "unknown",
      "location" : {
        "lat" : 38.9219317032,
        "lon" : -77.0772055012
      }
    },
    "lastUpdate" : "20140215T223711Z"
  }, {
    "type" : "place",
    "startTime" : "20140215T161327-0500",
    "endTime" : "20140215T172720-0500",
    "place" : {
      "id" : 12721207,
      "name" : "Whole Foods Market",
      "type" : "foursquare",
      "foursquareId" : "4aad58b8f964a520d25f20e3",
      "foursquareCategoryIds" : [ "4bf58dd8d48988d118951735", "4bf58dd8d48988d1d3941735", "4bf58dd8d48988d16a941735" ],
      "location" : {
        "lat" : 38.920938,
        "lon" : -77.071804
      }
    },
    "lastUpdate" : "20140712T164814Z"
  }, {
    "type" : "place",
    "startTime" : "20140215T173624-0500",
    "endTime" : "20140216T141622-0500",
    "place" : {
      "id" : 12428661,
      "name" : "2440 39th Street NW",
      "type" : "foursquare",
      "foursquareId" : "520fad54498e47affbce37d4",
      "foursquareCategoryIds" : [ "4bf58dd8d48988d103941735" ],
      "location" : {
        "lat" : 38.92592014653639,
        "lon" : -77.07371486668141
      }
    },
    "lastUpdate" : "20140227T005116Z"
  } ],
  "lastUpdate" : "20140712T164814Z"
}, {
  "date" : "20140216",
  "segments" : [ {
    "type" : "place",
    "startTime" : "20140215T173624-0500",
    "endTime" : "20140216T141622-0500",
    "place" : {
      "id" : 12428661,
      "name" : "2440 39th Street NW",
      "type" : "foursquare",
      "foursquareId" : "520fad54498e47affbce37d4",
      "foursquareCategoryIds" : [ "4bf58dd8d48988d103941735" ],
      "location" : {
        "lat" : 38.92592014653639,
        "lon" : -77.07371486668141
      }
    },
    "lastUpdate" : "20140227T005116Z"
  }, {
    "type" : "place",
    "startTime" : "20140216T144609-0500",
    "endTime" : "20140216T144935-0500",
    "place" : {
      "id" : 25822596,
      "type" : "unknown",
      "location" : {
        "lat" : 38.9089122568,
        "lon" : -77.0641352982
      }
    },
    "lastUpdate" : "20140216T222404Z"
  }, {
    "type" : "place",
    "startTime" : "20140216T145419-0500",
    "endTime" : "20140216T151229-0500",
    "place" : {
      "id" : 19912217,
      "name" : "Apple Store",
      "type" : "foursquare",
      "foursquareId" : "4bdb67c03904a59377434a9e",
      "foursquareCategoryIds" : [ "4bf58dd8d48988d122951735" ],
      "location" : {
        "lat" : 38.90590722335151,
        "lon" : -77.0626272217989
      }
    },
    "lastUpdate" : "20140806T122949Z"
  }, {
    "type" : "place",
    "startTime" : "20140216T151632-0500",
    "endTime" : "20140216T161129-0500",
    "place" : {
      "id" : 25822597,
      "name" : "CB2",
      "type" : "foursquare",
      "foursquareId" : "4d2e1c6f79dd6ea8b66786d3",
      "foursquareCategoryIds" : [ "4bf58dd8d48988d1f8941735" ],
      "location" : {
        "lat" : 38.90516808750274,
        "lon" : -77.06643283017698
      }
    },
    "lastUpdate" : "20140227T005133Z"
  }, {
    "type" : "place",
    "startTime" : "20140216T162009-0500",
    "endTime" : "20140216T182559-0500",
    "place" : {
      "id" : 25822602,
      "name" : "TJ Maxx & HomeGoods",
      "type" : "foursquare",
      "foursquareId" : "522c8c8011d277f9f23b1a0c",
      "foursquareCategoryIds" : [ "4bf58dd8d48988d1f6941735" ],
      "location" : {
        "lat" : 38.90506846179218,
        "lon" : -77.06456095806466
      }
    },
    "lastUpdate" : "20140920T205243Z"
  }, {
    "type" : "place",
    "startTime" : "20140216T183138-0500",
    "endTime" : "20140216T190652-0500",
    "place" : {
      "id" : 25847046,
      "name" : "H&M",
      "type" : "work",
      "location" : {
        "lat" : 38.9052623578,
        "lon" : -77.0602639566
      }
    },
    "lastUpdate" : "20140227T005313Z"
  }, {
    "type" : "place",
    "startTime" : "20140216T191337-0500",
    "endTime" : "20140216T195101-0500",
    "place" : {
      "id" : 19912218,
      "name" : "Safeway",
      "type" : "foursquare",
      "foursquareId" : "4bb614dc2f70c9b656d68430",
      "foursquareCategoryIds" : [ "4bf58dd8d48988d118951735", "4bf58dd8d48988d1c9941735", "4bf58dd8d48988d10f951735" ],
      "location" : {
        "lat" : 38.91567980755536,
        "lon" : -77.06758975982666
      }
    },
    "lastUpdate" : "20140227T005054Z"
  }, {
    "type" : "place",
    "startTime" : "20140216T195707-0500",
    "endTime" : "20140217T130335-0500",
    "place" : {
      "id" : 26937546,
      "name" : "2440 39th Street NW",
      "type" : "foursquare",
      "foursquareId" : "520fad54498e47affbce37d4",
      "foursquareCategoryIds" : [ "4bf58dd8d48988d103941735" ],
      "location" : {
        "lat" : 38.92592014653639,
        "lon" : -77.07371486668141
      }
    },
    "lastUpdate" : "20140222T170543Z"
  } ],
  "lastUpdate" : "20140920T205243Z"
} ]