[ {
  "date" : "20140512",
  "segments" : [ {
    "type" : "place",
    "startTime" : "20140511T135307-0400",
    "endTime" : "20140512T091724-0400",
    "place" : {
      "id" : 9869005,
      "name" : "Home",
      "type" : "home",
      "location" : {
        "lat" : 42.3754311174,
        "lon" : -71.1114458017
      }
    },
    "lastUpdate" : "20140512T162446Z"
  }, {
    "type" : "place",
    "startTime" : "20140512T092816-0400",
    "endTime" : "20140512T130652-0400",
    "place" : {
      "id" : 10149993,
      "name" : "Proximate",
      "type" : "foursquare",
      "foursquareId" : "51c8c0d1498e5d4d09a48362",
      "foursquareCategoryIds" : [ "4bf58dd8d48988d125941735" ],
      "location" : {
        "lat" : 42.378716,
        "lon" : -71.117205
      }
    },
    "lastUpdate" : "20140724T001347Z"
  }, {
    "type" : "place",
    "startTime" : "20140512T132716-0400",
    "endTime" : "20140512T141115-0400",
    "place" : {
      "id" : 19151062,
      "name" : "Grendel's Den Restaurant & Bar",
      "type" : "foursquare",
      "foursquareId" : "3fd66200f964a520bced1ee3",
      "foursquareCategoryIds" : [ "4bf58dd8d48988d116941735", "4bf58dd8d48988d14e941735" ],
      "location" : {
        "lat" : 42.37237675230346,
        "lon" : -71.12077832221985
      }
    },
    "lastUpdate" : "20140512T193245Z"
  }, {
    "type" : "place",
    "startTime" : "20140512T142250-0400",
    "endTime" : "20140512T193317-0400",
    "place" : {
      "id" : 10149993,
      "name" : "Proximate",
      "type" : "foursquare",
      "foursquareId" : "51c8c0d1498e5d4d09a48362",
      "foursquareCategoryIds" : [ "4bf58dd8d48988d125941735" ],
      "location" : {
        "lat" : 42.378716,
        "lon" : -71.117205
      }
    },
    "lastUpdate" : "20140724T001347Z"
  }, {
    "type" : "place",
    "startTime" : "20140512T195335-0400",
    "endTime" : "20140512T212847-0400",
    "place" : {
      "id" : 11959659,
      "name" : "Legal Sea Foods - Charles Square",
      "type" : "foursquare",
      "foursquareId" : "4bdcb5fa3904a59331664f9e",
      "foursquareCategoryIds" : [ "4bf58dd8d48988d1ce941735", "4bf58dd8d48988d14e941735", "4bf58dd8d48988d11e941735" ],
      "location" : {
        "lat" : 42.37220351484281,
        "lon" : -71.1230027436908
      }
    },
    "lastUpdate" : "20140513T224917Z"
  }, {
    "type" : "place",
    "startTime" : "20140512T214755-0400",
    "endTime" : "20140513T101753-0400",
    "place" : {
      "id" : 9869005,
      "name" : "Home",
      "type" : "home",
      "location" : {
        "lat" : 42.3754311174,
        "lon" : -71.1114458017
      }
    },
    "lastUpdate" : "20140513T200821Z"
  } ],
  "lastUpdate" : "20140724T001347Z"
}, {
  "date" : "20140513",
  "segments" : [ {
    "type" : "place",
    "startTime" : "20140512T214755-0400",
    "endTime" : "20140513T101753-0400",
    "place" : {
      "id" : 9869005,
      "name" : "Home",
      "type" : "home",
      "location" : {
        "lat" : 42.3754311174,
        "lon" : -71.1114458017
      }
    },
    "lastUpdate" : "20140513T200821Z"
  }, {
    "type" : "place",
    "startTime" : "20140513T101754-0400",
    "endTime" : "20140513T111123-0400",
    "place" : {
      "id" : 10293866,
      "name" : "Darwin's Ltd.",
      "type" : "foursquare",
      "foursquareId" : "4a1c900cf964a520507b1fe3",
      "foursquareCategoryIds" : [ "4bf58dd8d48988d1c5941735", "4bf58dd8d48988d143941735" ],
      "location" : {
        "lat" : 42.37488104,
        "lon" : -71.109389
      }
    },
    "lastUpdate" : "20140513T200821Z"
  }, {
    "type" : "place",
    "startTime" : "20140513T120115-0400",
    "endTime" : "20140513T124529-0400",
    "place" : {
      "id" : 49212621,
      "name" : "Panera Bread",
      "type" : "foursquare",
      "foursquareId" : "4c76983566be6dcba68ec30f",
      "foursquareCategoryIds" : [ "4bf58dd8d48988d16a941735" ],
      "location" : {
        "lat" : 42.23825762,
        "lon" : -71.178372
      }
    },
    "lastUpdate" : "20140513T224928Z"
  }, {
    "type" : "place",
    "startTime" : "20140513T131005-0400",
    "endTime" : "20140513T155441-0400",
    "place" : {
      "id" : 32905753,
      "name" : "The Pulse Network",
      "type" : "foursquare",
      "foursquareId" : "4c23a07af7ced13aa282216d",
      "foursquareCategoryIds" : [ "4bf58dd8d48988d125941735" ],
      "location" : {
        "lat" : 42.168313,
        "lon" : -71.110937
      }
    },
    "lastUpdate" : "20140513T213950Z"
  }, {
    "type" : "place",
    "startTime" : "20140513T160851-0400",
    "endTime" : "20140513T161920-0400",
    "place" : {
      "id" : 47346412,
      "name" : "Cramer",
      "type" : "foursquare",
      "foursquareId" : "4a6efea1f964a5202bd51fe3",
      "foursquareCategoryIds" : [ "4bf58dd8d48988d124941735" ],
      "location" : {
        "lat" : 42.19840096378687,
        "lon" : -71.15880131721497
      }
    },
    "lastUpdate" : "20140513T213950Z"
  }, {
    "type" : "place",
    "startTime" : "20140513T171506-0400",
    "endTime" : "20140513T195818-0400",
    "place" : {
      "id" : 9869005,
      "name" : "Home",
      "type" : "home",
      "location" : {
        "lat" : 42.3754311174,
        "lon" : -71.1114458017
      }
    },
    "lastUpdate" : "20140514T015336Z"
  }, {
    "type" : "place",
    "startTime" : "20140513T200857-0400",
    "endTime" : "20140513T201958-0400",
    "place" : {
      "id" : 26937397,
      "name" : "Cafe Gato Rojo",
      "type" : "foursquare",
      "foursquareId" : "4b63076ff964a5208c5e2ae3",
      "foursquareCategoryIds" : [ "4bf58dd8d48988d16d941735" ],
      "location" : {
        "lat" : 42.37359441115208,
        "lon" : -71.11834019422531
      }
    },
    "lastUpdate" : "20140514T015336Z"
  }, {
    "type" : "place",
    "startTime" : "20140513T202639-0400",
    "endTime" : "20140513T221145-0400",
    "place" : {
      "id" : 27795038,
      "name" : "Orinoco",
      "type" : "foursquare",
      "foursquareId" : "4f106cace4b072565b8bd1b6",
      "foursquareCategoryIds" : [ "4bf58dd8d48988d152941735" ],
      "location" : {
        "lat" : 42.37190996862827,
        "lon" : -71.12049603929978
      }
    },
    "lastUpdate" : "20140514T032735Z"
  }, {
    "type" : "place",
    "startTime" : "20140513T222908-0400",
    "endTime" : "20140514T091953-0400",
    "place" : {
      "id" : 9869005,
      "name" : "Home",
      "type" : "home",
      "location" : {
        "lat" : 42.3754311174,
        "lon" : -71.1114458017
      }
    },
    "lastUpdate" : "20140514T164406Z"
  } ],
  "lastUpdate" : "20140514T164406Z"
}, {
  "date" : "20140514",
  "segments" : [ {
    "type" : "place",
    "startTime" : "20140513T222908-0400",
    "endTime" : "20140514T091953-0400",
    "place" : {
      "id" : 9869005,
      "name" : "Home",
      "type" : "home",
      "location" : {
        "lat" : 42.3754311174,
        "lon" : -71.1114458017
      }
    },
    "lastUpdate" : "20140514T164406Z"
  }, {
    "type" : "place",
    "startTime" : "20140514T092757-0400",
    "endTime" : "20140514T144636-0400",
    "place" : {
      "id" : 10149993,
      "name" : "Proximate",
      "type" : "foursquare",
      "foursquareId" : "51c8c0d1498e5d4d09a48362",
      "foursquareCategoryIds" : [ "4bf58dd8d48988d125941735" ],
      "location" : {
        "lat" : 42.378716,
        "lon" : -71.117205
      }
    },
    "lastUpdate" : "20140724T001347Z"
  }, {
    "type" : "place",
    "startTime" : "20140514T145620-0400",
    "endTime" : "20140514T154254-0400",
    "place" : {
      "id" : 10042715,
      "name" : "Border Cafe",
      "type" : "foursquare",
      "foursquareId" : "3fd66200f964a520bded1ee3",
      "foursquareCategoryIds" : [ "4bf58dd8d48988d1c1941735", "4bf58dd8d48988d17a941735" ],
      "location" : {
        "lat" : 42.3743468,
        "lon" : -71.120141
      }
    },
    "lastUpdate" : "20140514T224100Z"
  }, {
    "type" : "place",
    "startTime" : "20140514T155157-0400",
    "endTime" : "20140514T181939-0400",
    "place" : {
      "id" : 10149993,
      "name" : "Proximate",
      "type" : "foursquare",
      "foursquareId" : "51c8c0d1498e5d4d09a48362",
      "foursquareCategoryIds" : [ "4bf58dd8d48988d125941735" ],
      "location" : {
        "lat" : 42.378716,
        "lon" : -71.117205
      }
    },
    "lastUpdate" : "20140724T001347Z"
  }, {
    "type" : "place",
    "startTime" : "20140514T183344-0400",
    "endTime" : "20140514T225742-0400",
    "place" : {
      "id" : 9869005,
      "name" : "Home",
      "type" : "home",
      "location" : {
        "lat" : 42.3754311174,
        "lon" : -71.1114458017
      }
    },
    "lastUpdate" : "20140515T182831Z"
  } ],
  "lastUpdate" : "20140724T001347Z"
}, {
  "date" : "20140515",
  "segments" : [ {
    "type" : "place",
    "startTime" : "20140515T105902-0400",
    "endTime" : "20140515T114318-0400",
    "place" : {
      "id" : 29123816,
      "name" : "Dillon House",
      "type" : "foursquare",
      "foursquareId" : "4f451d77e4b093578027fe02",
      "foursquareCategoryIds" : [ "4bf58dd8d48988d197941735" ],
      "location" : {
        "lat" : 42.3665277681994,
        "lon" : -71.1218828522334
      }
    },
    "lastUpdate" : "20140515T220445Z"
  }, {
    "type" : "place",
    "startTime" : "20140515T120824-0400",
    "endTime" : "20140515T130224-0400",
    "place" : {
      "id" : 10149993,
      "name" : "Proximate",
      "type" : "foursquare",
      "foursquareId" : "51c8c0d1498e5d4d09a48362",
      "foursquareCategoryIds" : [ "4bf58dd8d48988d125941735" ],
      "location" : {
        "lat" : 42.378716,
        "lon" : -71.117205
      }
    },
    "lastUpdate" : "20140724T001347Z"
  }, {
    "type" : "place",
    "startTime" : "20140515T131244-0400",
    "endTime" : "20140515T140033-0400",
    "place" : {
      "id" : 10042715,
      "name" : "Border Cafe",
      "type" : "foursquare",
      "foursquareId" : "3fd66200f964a520bded1ee3",
      "foursquareCategoryIds" : [ "4bf58dd8d48988d1c1941735", "4bf58dd8d48988d17a941735" ],
      "location" : {
        "lat" : 42.3743468,
        "lon" : -71.120141
      }
    },
    "lastUpdate" : "20140515T220445Z"
  }, {
    "type" : "place",
    "startTime" : "20140515T141212-0400",
    "endTime" : "20140515T141722-0400",
    "place" : {
      "id" : 10149993,
      "name" : "Proximate",
      "type" : "foursquare",
      "foursquareId" : "51c8c0d1498e5d4d09a48362",
      "foursquareCategoryIds" : [ "4bf58dd8d48988d125941735" ],
      "location" : {
        "lat" : 42.378716,
        "lon" : -71.117205
      }
    },
    "lastUpdate" : "20140724T001347Z"
  }, {
    "type" : "place",
    "startTime" : "20140515T142818-0400",
    "endTime" : "20140515T144244-0400",
    "place" : {
      "id" : 9869005,
      "name" : "Home",
      "type" : "home",
      "location" : {
        "lat" : 42.3754311174,
        "lon" : -71.1114458017
      }
    },
    "lastUpdate" : "20140515T220445Z"
  }, {
    "type" : "place",
    "startTime" : "20140515T145634-0400",
    "endTime" : "20140515T160437-0400",
    "place" : {
      "id" : 10149993,
      "name" : "Proximate",
      "type" : "foursquare",
      "foursquareId" : "51c8c0d1498e5d4d09a48362",
      "foursquareCategoryIds" : [ "4bf58dd8d48988d125941735" ],
      "location" : {
        "lat" : 42.378716,
        "lon" : -71.117205
      }
    },
    "lastUpdate" : "20140724T001347Z"
  }, {
    "type" : "place",
    "startTime" : "20140515T163053-0400",
    "endTime" : "20140515T180315-0400",
    "place" : {
      "id" : 10149993,
      "name" : "Proximate",
      "type" : "foursquare",
      "foursquareId" : "51c8c0d1498e5d4d09a48362",
      "foursquareCategoryIds" : [ "4bf58dd8d48988d125941735" ],
      "location" : {
        "lat" : 42.378716,
        "lon" : -71.117205
      }
    },
    "lastUpdate" : "20140724T001347Z"
  }, {
    "type" : "place",
    "startTime" : "20140515T181522-0400",
    "endTime" : "20140515T211613-0400",
    "place" : {
      "id" : 18730006,
      "name" : "Dickson Bros. True Value",
      "type" : "foursquare",
      "foursquareId" : "4aad3cf3f964a5202f5f20e3",
      "foursquareCategoryIds" : [ "4bf58dd8d48988d112951735" ],
      "location" : {
        "lat" : 42.373343,
        "lon" : -71.120418
      }
    },
    "lastUpdate" : "20140516T025530Z"
  }, {
    "type" : "place",
    "startTime" : "20140515T212851-0400",
    "endTime" : "20140516T095118-0400",
    "place" : {
      "id" : 9869005,
      "name" : "Home",
      "type" : "home",
      "location" : {
        "lat" : 42.3754311174,
        "lon" : -71.1114458017
      }
    },
    "lastUpdate" : "20140516T161918Z"
  } ],
  "lastUpdate" : "20140724T001347Z"
}, {
  "date" : "20140516",
  "segments" : [ {
    "type" : "place",
    "startTime" : "20140515T212851-0400",
    "endTime" : "20140516T095118-0400",
    "place" : {
      "id" : 9869005,
      "name" : "Home",
      "type" : "home",
      "location" : {
        "lat" : 42.3754311174,
        "lon" : -71.1114458017
      }
    },
    "lastUpdate" : "20140516T161918Z"
  }, {
    "type" : "place",
    "startTime" : "20140516T100057-0400",
    "endTime" : "20140516T101317-0400",
    "place" : {
      "id" : 50164180,
      "type" : "unknown",
      "location" : {
        "lat" : 42.377345955,
        "lon" : -71.1163967467
      }
    },
    "lastUpdate" : "20140516T161918Z"
  }, {
    "type" : "place",
    "startTime" : "20140516T102158-0400",
    "endTime" : "20140516T120331-0400",
    "place" : {
      "id" : 10149993,
      "name" : "Proximate",
      "type" : "foursquare",
      "foursquareId" : "51c8c0d1498e5d4d09a48362",
      "foursquareCategoryIds" : [ "4bf58dd8d48988d125941735" ],
      "location" : {
        "lat" : 42.378716,
        "lon" : -71.117205
      }
    },
    "lastUpdate" : "20140724T001347Z"
  }, {
    "type" : "place",
    "startTime" : "20140516T125811-0400",
    "endTime" : "20140516T143249-0400",
    "place" : {
      "id" : 32905753,
      "name" : "The Pulse Network",
      "type" : "foursquare",
      "foursquareId" : "4c23a07af7ced13aa282216d",
      "foursquareCategoryIds" : [ "4bf58dd8d48988d125941735" ],
      "location" : {
        "lat" : 42.168313,
        "lon" : -71.110937
      }
    },
    "lastUpdate" : "20140517T021657Z"
  }, {
    "type" : "place",
    "startTime" : "20140516T150605-0400",
    "endTime" : "20140516T161240-0400",
    "place" : {
      "id" : 50330658,
      "type" : "unknown",
      "location" : {
        "lat" : 42.2931883669,
        "lon" : -71.2639720943
      }
    },
    "lastUpdate" : "20140517T021657Z"
  }, {
    "type" : "place",
    "startTime" : "20140516T171136-0400",
    "endTime" : "20140516T204613-0400",
    "place" : {
      "id" : 9869005,
      "name" : "Home",
      "type" : "home",
      "location" : {
        "lat" : 42.3754311174,
        "lon" : -71.1114458017
      }
    },
    "lastUpdate" : "20140517T021657Z"
  }, {
    "type" : "place",
    "startTime" : "20140516T205724-0400",
    "endTime" : "20140516T210833-0400",
    "place" : {
      "id" : 18127865,
      "name" : "CVS/pharmacy",
      "type" : "foursquare",
      "foursquareId" : "49df6a3ff964a520c6601fe3",
      "foursquareCategoryIds" : [ "4bf58dd8d48988d10f951735" ],
      "location" : {
        "lat" : 42.37402935435937,
        "lon" : -71.11899197101593
      }
    },
    "lastUpdate" : "20140610T121801Z"
  }, {
    "type" : "place",
    "startTime" : "20140516T211902-0400",
    "endTime" : "20140517T134858-0400",
    "place" : {
      "id" : 9869005,
      "name" : "Home",
      "type" : "home",
      "location" : {
        "lat" : 42.3754311174,
        "lon" : -71.1114458017
      }
    },
    "lastUpdate" : "20140517T202715Z"
  } ],
  "lastUpdate" : "20140724T001347Z"
}, {
  "date" : "20140517",
  "segments" : [ {
    "type" : "place",
    "startTime" : "20140516T211902-0400",
    "endTime" : "20140517T134858-0400",
    "place" : {
      "id" : 9869005,
      "name" : "Home",
      "type" : "home",
      "location" : {
        "lat" : 42.3754311174,
        "lon" : -71.1114458017
      }
    },
    "lastUpdate" : "20140517T202715Z"
  }, {
    "type" : "place",
    "startTime" : "20140517T135946-0400",
    "endTime" : "20140517T140608-0400",
    "place" : {
      "id" : 50666178,
      "type" : "unknown",
      "location" : {
        "lat" : 42.3735208074,
        "lon" : -71.1173058895
      }
    },
    "lastUpdate" : "20140517T202715Z"
  }, {
    "type" : "place",
    "startTime" : "20140517T141624-0400",
    "endTime" : "20140517T142710-0400",
    "place" : {
      "id" : 51050611,
      "name" : "FedEx Office Print & Ship Center",
      "type" : "foursquare",
      "foursquareId" : "4a872e01f964a520150320e3",
      "foursquareCategoryIds" : [ "52f2ab2ebcbc57f1066b8b28" ],
      "location" : {
        "lat" : 42.373474,
        "lon" : -71.122612
      }
    },
    "lastUpdate" : "20140518T165547Z"
  }, {
    "type" : "place",
    "startTime" : "20140517T144522-0400",
    "endTime" : "20140517T145352-0400",
    "place" : {
      "id" : 10293866,
      "name" : "Darwin's Ltd.",
      "type" : "foursquare",
      "foursquareId" : "4a1c900cf964a520507b1fe3",
      "foursquareCategoryIds" : [ "4bf58dd8d48988d1c5941735", "4bf58dd8d48988d143941735" ],
      "location" : {
        "lat" : 42.37488104,
        "lon" : -71.109389
      }
    },
    "lastUpdate" : "20140517T202715Z"
  }, {
    "type" : "place",
    "startTime" : "20140517T145730-0400",
    "endTime" : "20140517T154906-0400",
    "place" : {
      "id" : 9869005,
      "name" : "Home",
      "type" : "home",
      "location" : {
        "lat" : 42.3754311174,
        "lon" : -71.1114458017
      }
    },
    "lastUpdate" : "20140517T225457Z"
  }, {
    "type" : "place",
    "startTime" : "20140517T155630-0400",
    "endTime" : "20140517T160117-0400",
    "place" : {
      "id" : 51050693,
      "name" : "Harvard Memorial Hall",
      "type" : "foursquare",
      "foursquareId" : "4abe2f51f964a520e08b20e3",
      "foursquareCategoryIds" : [ "4bf58dd8d48988d198941735" ],
      "location" : {
        "lat" : 42.37585927254782,
        "lon" : -71.11487910771201
      }
    },
    "lastUpdate" : "20140518T165603Z"
  }, {
    "type" : "place",
    "startTime" : "20140517T160531-0400",
    "endTime" : "20140517T203858-0400",
    "place" : {
      "id" : 9869005,
      "name" : "Home",
      "type" : "home",
      "location" : {
        "lat" : 42.3754311174,
        "lon" : -71.1114458017
      }
    },
    "lastUpdate" : "20140518T033247Z"
  }, {
    "type" : "place",
    "startTime" : "20140517T205434-0400",
    "endTime" : "20140518T001537-0400",
    "place" : {
      "id" : 50817934,
      "name" : "The Boathouse",
      "type" : "foursquare",
      "foursquareId" : "50620ab3e4b0100721c85f46",
      "foursquareCategoryIds" : [ "4bf58dd8d48988d11b941735" ],
      "location" : {
        "lat" : 42.37140413215364,
        "lon" : -71.11674755856328
      }
    },
    "lastUpdate" : "20140518T165612Z"
  } ],
  "lastUpdate" : "20140518T165612Z"
}, {
  "date" : "20140518",
  "segments" : [ {
    "type" : "place",
    "startTime" : "20140517T205434-0400",
    "endTime" : "20140518T001537-0400",
    "place" : {
      "id" : 50817934,
      "name" : "The Boathouse",
      "type" : "foursquare",
      "foursquareId" : "50620ab3e4b0100721c85f46",
      "foursquareCategoryIds" : [ "4bf58dd8d48988d11b941735" ],
      "location" : {
        "lat" : 42.37140413215364,
        "lon" : -71.11674755856328
      }
    },
    "lastUpdate" : "20140518T165612Z"
  }, {
    "type" : "place",
    "startTime" : "20140518T002110-0400",
    "endTime" : "20140518T003336-0400",
    "place" : {
      "id" : 18127865,
      "name" : "CVS/pharmacy",
      "type" : "foursquare",
      "foursquareId" : "49df6a3ff964a520c6601fe3",
      "foursquareCategoryIds" : [ "4bf58dd8d48988d10f951735" ],
      "location" : {
        "lat" : 42.37402935435937,
        "lon" : -71.11899197101593
      }
    },
    "lastUpdate" : "20140518T165625Z"
  }, {
    "type" : "place",
    "startTime" : "20140518T004249-0400",
    "endTime" : "20140518T004737-0400",
    "place" : {
      "id" : 50839137,
      "type" : "unknown",
      "location" : {
        "lat" : 42.3742120157,
        "lon" : -71.1148667748
      }
    },
    "lastUpdate" : "20140518T063846Z"
  }, {
    "type" : "place",
    "startTime" : "20140518T005421-0400",
    "endTime" : "20140518T105111-0400",
    "place" : {
      "id" : 9869005,
      "name" : "Home",
      "type" : "home",
      "location" : {
        "lat" : 42.3754311174,
        "lon" : -71.1114458017
      }
    },
    "lastUpdate" : "20140518T165530Z"
  }, {
    "type" : "place",
    "startTime" : "20140518T110455-0400",
    "endTime" : "20140518T111253-0400",
    "place" : {
      "id" : 51050972,
      "name" : "Peet's Coffee & Tea",
      "type" : "foursquare",
      "foursquareId" : "4a60b9adf964a52014c11fe3",
      "foursquareCategoryIds" : [ "4bf58dd8d48988d1e0931735" ],
      "location" : {
        "lat" : 42.372612,
        "lon" : -71.120509
      }
    },
    "lastUpdate" : "20140518T165652Z"
  }, {
    "type" : "place",
    "startTime" : "20140518T111731-0400",
    "endTime" : "20140518T120149-0400",
    "place" : {
      "id" : 30131139,
      "name" : "Tory Row",
      "type" : "foursquare",
      "foursquareId" : "49e79621f964a520cf641fe3",
      "foursquareCategoryIds" : [ "4bf58dd8d48988d14e941735" ],
      "location" : {
        "lat" : 42.373379,
        "lon" : -71.119457
      }
    },
    "lastUpdate" : "20140601T235008Z"
  }, {
    "type" : "place",
    "startTime" : "20140518T122325-0400",
    "endTime" : "20140518T154032-0400",
    "place" : {
      "id" : 9869005,
      "name" : "Home",
      "type" : "home",
      "location" : {
        "lat" : 42.3754311174,
        "lon" : -71.1114458017
      }
    },
    "lastUpdate" : "20140518T202809Z"
  }, {
    "type" : "place",
    "startTime" : "20140518T154339-0400",
    "endTime" : "20140518T162537-0400",
    "place" : {
      "id" : 10293866,
      "name" : "Darwin's Ltd.",
      "type" : "foursquare",
      "foursquareId" : "4a1c900cf964a520507b1fe3",
      "foursquareCategoryIds" : [ "4bf58dd8d48988d1c5941735", "4bf58dd8d48988d143941735" ],
      "location" : {
        "lat" : 42.37488104,
        "lon" : -71.109389
      }
    },
    "lastUpdate" : "20140519T004528Z"
  }, {
    "type" : "place",
    "startTime" : "20140518T162825-0400",
    "endTime" : "20140519T100332-0400",
    "place" : {
      "id" : 9869005,
      "name" : "Home",
      "type" : "home",
      "location" : {
        "lat" : 42.3754311174,
        "lon" : -71.1114458017
      }
    },
    "lastUpdate" : "20140519T172850Z"
  } ],
  "lastUpdate" : "20140601T235008Z"
} ]