[ {
  "date" : "20141201",
  "segments" : [ {
    "type" : "place",
    "startTime" : "20141130T192929-0600",
    "endTime" : "20141201T062655-0600",
    "place" : {
      "id" : 9869005,
      "name" : "Home",
      "type" : "home",
      "location" : {
        "lat" : 42.3754311174,
        "lon" : -71.1114458017
      }
    },
    "lastUpdate" : "20141201T162852Z"
  }, {
    "type" : "place",
    "startTime" : "20141201T064819-0600",
    "endTime" : "20141201T075514-0600",
    "place" : {
      "id" : 114920853,
      "type" : "unknown",
      "location" : {
        "lat" : 42.3648127837,
        "lon" : -71.1226927852
      }
    },
    "lastUpdate" : "20141201T162852Z"
  }, {
    "type" : "place",
    "startTime" : "20141201T080303-0600",
    "endTime" : "20141201T141912-0600",
    "place" : {
      "id" : 99453957,
      "name" : "Aldrich Hall",
      "type" : "foursquare",
      "foursquareId" : "4ac64359f964a5206eb320e3",
      "foursquareCategoryIds" : [ "4bf58dd8d48988d198941735" ],
      "location" : {
        "lat" : 42.36578780710847,
        "lon" : -71.12210915179602
      }
    },
    "lastUpdate" : "20141201T210708Z"
  }, {
    "type" : "place",
    "startTime" : "20141201T142754-0600",
    "endTime" : "20141201T150118-0600",
    "place" : {
      "id" : 11237847,
      "name" : "Harvard Innovation Lab",
      "type" : "foursquare",
      "foursquareId" : "4e5d4676ae60839ea2e29e64",
      "foursquareCategoryIds" : [ "4bf58dd8d48988d19f941735" ],
      "location" : {
        "lat" : 42.36403242532342,
        "lon" : -71.12407621183526
      }
    },
    "lastUpdate" : "20141201T223733Z"
  }, {
    "type" : "place",
    "startTime" : "20141201T151235-0600",
    "endTime" : "20141201T155950-0600",
    "place" : {
      "id" : 10115332,
      "name" : "Spangler Center",
      "type" : "foursquare",
      "foursquareId" : "4aeee0b0f964a52081d421e3",
      "foursquareCategoryIds" : [ "4bf58dd8d48988d1ab941735" ],
      "location" : {
        "lat" : 42.36522543920124,
        "lon" : -71.12218458495514
      }
    },
    "lastUpdate" : "20141201T223734Z"
  }, {
    "type" : "place",
    "startTime" : "20141201T160304-0600",
    "endTime" : "20141201T165947-0600",
    "place" : {
      "id" : 103497933,
      "name" : "Batten Hall",
      "type" : "foursquare",
      "foursquareId" : "4f8c1d88e4b002b90db5dda7",
      "foursquareCategoryIds" : [ "4bf58dd8d48988d198941735" ],
      "location" : {
        "lat" : 42.3640615623146,
        "lon" : -71.12383604049683
      }
    },
    "lastUpdate" : "20141202T000817Z"
  }, {
    "type" : "place",
    "startTime" : "20141201T172807-0600",
    "endTime" : "20141201T182849-0600",
    "place" : {
      "id" : 9869005,
      "name" : "Home",
      "type" : "home",
      "location" : {
        "lat" : 42.3754311174,
        "lon" : -71.1114458017
      }
    },
    "lastUpdate" : "20141202T032231Z"
  }, {
    "type" : "place",
    "startTime" : "20141201T183835-0600",
    "endTime" : "20141201T233248-0600",
    "place" : {
      "id" : 9869005,
      "name" : "Home",
      "type" : "home",
      "location" : {
        "lat" : 42.3754311174,
        "lon" : -71.1114458017
      }
    },
    "lastUpdate" : "20141202T220608Z"
  } ],
  "lastUpdate" : "20141202T220608Z"
}, {
  "date" : "20141202",
  "segments" : [ {
    "type" : "place",
    "startTime" : "20141202T143751-0600",
    "endTime" : "20141202T144136-0600",
    "place" : {
      "id" : 9869004,
      "name" : "Broadway Marketplace",
      "type" : "foursquare",
      "foursquareId" : "4a661612f964a520ffc71fe3",
      "foursquareCategoryIds" : [ "4bf58dd8d48988d118951735", "4bf58dd8d48988d1f5941735" ],
      "location" : {
        "lat" : 42.37405171427381,
        "lon" : -71.11300484548056
      }
    },
    "lastUpdate" : "20141202T220608Z"
  }, {
    "type" : "place",
    "startTime" : "20141202T144543-0600",
    "endTime" : "20141202T191405-0600",
    "place" : {
      "id" : 9869005,
      "name" : "Home",
      "type" : "home",
      "location" : {
        "lat" : 42.3754311174,
        "lon" : -71.1114458017
      }
    },
    "lastUpdate" : "20141203T021824Z"
  }, {
    "type" : "place",
    "startTime" : "20141202T191926-0600",
    "endTime" : "20141202T192134-0600",
    "place" : {
      "id" : 116929778,
      "name" : "Bank of America ATM",
      "type" : "work",
      "location" : {
        "lat" : 42.3782437994,
        "lon" : -71.1067020284
      }
    },
    "lastUpdate" : "20141203T203614Z"
  }, {
    "type" : "place",
    "startTime" : "20141202T192513-0600",
    "endTime" : "20141203T063623-0600",
    "place" : {
      "id" : 9869005,
      "name" : "Home",
      "type" : "home",
      "location" : {
        "lat" : 42.3754311174,
        "lon" : -71.1114458017
      }
    },
    "lastUpdate" : "20141203T144459Z"
  } ],
  "lastUpdate" : "20141203T203614Z"
}, {
  "date" : "20141203",
  "segments" : [ {
    "type" : "place",
    "startTime" : "20141202T192513-0600",
    "endTime" : "20141203T063623-0600",
    "place" : {
      "id" : 9869005,
      "name" : "Home",
      "type" : "home",
      "location" : {
        "lat" : 42.3754311174,
        "lon" : -71.1114458017
      }
    },
    "lastUpdate" : "20141203T144459Z"
  }, {
    "type" : "place",
    "startTime" : "20141203T065902-0600",
    "endTime" : "20141203T075624-0600",
    "place" : {
      "id" : 10115332,
      "name" : "Spangler Center",
      "type" : "foursquare",
      "foursquareId" : "4aeee0b0f964a52081d421e3",
      "foursquareCategoryIds" : [ "4bf58dd8d48988d1ab941735" ],
      "location" : {
        "lat" : 42.36522543920124,
        "lon" : -71.12218458495514
      }
    },
    "lastUpdate" : "20141203T161825Z"
  }, {
    "type" : "place",
    "startTime" : "20141203T080305-0600",
    "endTime" : "20141203T122037-0600",
    "place" : {
      "id" : 84119446,
      "name" : "Aldrich Hall",
      "type" : "foursquare",
      "foursquareId" : "4ac64359f964a5206eb320e3",
      "foursquareCategoryIds" : [ "4bf58dd8d48988d198941735" ],
      "location" : {
        "lat" : 42.36578780710847,
        "lon" : -71.12210915179602
      }
    },
    "lastUpdate" : "20141217T041832Z"
  }, {
    "type" : "place",
    "startTime" : "20141203T122635-0600",
    "endTime" : "20141203T141157-0600",
    "place" : {
      "id" : 11237847,
      "name" : "Harvard Innovation Lab",
      "type" : "foursquare",
      "foursquareId" : "4e5d4676ae60839ea2e29e64",
      "foursquareCategoryIds" : [ "4bf58dd8d48988d19f941735" ],
      "location" : {
        "lat" : 42.36403242532342,
        "lon" : -71.12407621183526
      }
    },
    "lastUpdate" : "20141203T234243Z"
  }, {
    "type" : "place",
    "startTime" : "20141203T142813-0600",
    "endTime" : "20141203T160347-0600",
    "place" : {
      "id" : 10042714,
      "name" : "Harvard Alumni Association",
      "type" : "foursquare",
      "foursquareId" : "4b5dc68df964a520026b29e3",
      "foursquareCategoryIds" : [ "4bf58dd8d48988d1ae941735" ],
      "location" : {
        "lat" : 42.37317592010315,
        "lon" : -71.12325225275964
      }
    },
    "lastUpdate" : "20141203T234243Z"
  }, {
    "type" : "place",
    "startTime" : "20141203T161112-0600",
    "endTime" : "20141203T213309-0600",
    "place" : {
      "id" : 19413398,
      "name" : "Starbucks",
      "type" : "foursquare",
      "foursquareId" : "49cabb79f964a520d8581fe3",
      "foursquareCategoryIds" : [ "4bf58dd8d48988d1e0931735" ],
      "location" : {
        "lat" : 42.374494,
        "lon" : -71.12017
      }
    },
    "lastUpdate" : "20141204T042249Z"
  }, {
    "type" : "place",
    "startTime" : "20141203T215147-0600",
    "endTime" : "20141204T063340-0600",
    "place" : {
      "id" : 9869005,
      "name" : "Home",
      "type" : "home",
      "location" : {
        "lat" : 42.3754311174,
        "lon" : -71.1114458017
      }
    },
    "lastUpdate" : "20141204T164902Z"
  } ],
  "lastUpdate" : "20141217T041832Z"
}, {
  "date" : "20141204",
  "segments" : [ {
    "type" : "place",
    "startTime" : "20141203T215147-0600",
    "endTime" : "20141204T063340-0600",
    "place" : {
      "id" : 9869005,
      "name" : "Home",
      "type" : "home",
      "location" : {
        "lat" : 42.3754311174,
        "lon" : -71.1114458017
      }
    },
    "lastUpdate" : "20141204T164902Z"
  }, {
    "type" : "place",
    "startTime" : "20141204T065450-0600",
    "endTime" : "20141204T150531-0600",
    "place" : {
      "id" : 84119446,
      "name" : "Aldrich Hall",
      "type" : "foursquare",
      "foursquareId" : "4ac64359f964a5206eb320e3",
      "foursquareCategoryIds" : [ "4bf58dd8d48988d198941735" ],
      "location" : {
        "lat" : 42.36578780710847,
        "lon" : -71.12210915179602
      }
    },
    "lastUpdate" : "20141217T041832Z"
  }, {
    "type" : "place",
    "startTime" : "20141204T153229-0600",
    "endTime" : "20141204T171957-0600",
    "place" : {
      "id" : 9869005,
      "name" : "Home",
      "type" : "home",
      "location" : {
        "lat" : 42.3754311174,
        "lon" : -71.1114458017
      }
    },
    "lastUpdate" : "20141205T025036Z"
  }, {
    "type" : "place",
    "startTime" : "20141204T174114-0600",
    "endTime" : "20141204T223411-0600",
    "place" : {
      "id" : 107975022,
      "name" : "One Western Avenue",
      "type" : "foursquare",
      "foursquareId" : "4aca3daaf964a520fcc020e3",
      "foursquareCategoryIds" : [ "4d954b06a243a5684965b473" ],
      "location" : {
        "lat" : 42.36460253791613,
        "lon" : -71.11879588132827
      }
    },
    "lastUpdate" : "20141205T225247Z"
  }, {
    "type" : "place",
    "startTime" : "20141204T225948-0600",
    "endTime" : "20141205T063419-0600",
    "place" : {
      "id" : 9869005,
      "name" : "Home",
      "type" : "home",
      "location" : {
        "lat" : 42.3754311174,
        "lon" : -71.1114458017
      }
    },
    "lastUpdate" : "20141205T225247Z"
  } ],
  "lastUpdate" : "20141217T041832Z"
}, {
  "date" : "20141205",
  "segments" : [ {
    "type" : "place",
    "startTime" : "20141204T225948-0600",
    "endTime" : "20141205T063419-0600",
    "place" : {
      "id" : 9869005,
      "name" : "Home",
      "type" : "home",
      "location" : {
        "lat" : 42.3754311174,
        "lon" : -71.1114458017
      }
    },
    "lastUpdate" : "20141205T225247Z"
  }, {
    "type" : "place",
    "startTime" : "20141205T065557-0600",
    "endTime" : "20141205T133043-0600",
    "place" : {
      "id" : 84119446,
      "name" : "Aldrich Hall",
      "type" : "foursquare",
      "foursquareId" : "4ac64359f964a5206eb320e3",
      "foursquareCategoryIds" : [ "4bf58dd8d48988d198941735" ],
      "location" : {
        "lat" : 42.36578780710847,
        "lon" : -71.12210915179602
      }
    },
    "lastUpdate" : "20141217T041832Z"
  }, {
    "type" : "place",
    "startTime" : "20141205T135002-0600",
    "endTime" : "20141205T143210-0600",
    "place" : {
      "id" : 117422920,
      "name" : "Keezer's",
      "type" : "foursquare",
      "foursquareId" : "4b92a900f964a520c00e34e3",
      "foursquareCategoryIds" : [ "4bf58dd8d48988d103951735" ],
      "location" : {
        "lat" : 42.36377617877598,
        "lon" : -71.10901415348053
      }
    },
    "lastUpdate" : "20141206T005100Z"
  }, {
    "type" : "place",
    "startTime" : "20141205T145350-0600",
    "endTime" : "20141205T165009-0600",
    "place" : {
      "id" : 9869005,
      "name" : "Home",
      "type" : "home",
      "location" : {
        "lat" : 42.3754311174,
        "lon" : -71.1114458017
      }
    },
    "lastUpdate" : "20141206T002440Z"
  }, {
    "type" : "place",
    "startTime" : "20141205T170455-0600",
    "endTime" : "20141205T170954-0600",
    "place" : {
      "id" : 117438504,
      "type" : "unknown",
      "location" : {
        "lat" : 42.3689773234,
        "lon" : -71.1101670964
      }
    },
    "lastUpdate" : "20141206T002440Z"
  }, {
    "type" : "place",
    "startTime" : "20141205T174659-0600",
    "endTime" : "20141205T180424-0600",
    "place" : {
      "id" : 117438505,
      "name" : "The Westin Copley Place",
      "type" : "foursquare",
      "foursquareId" : "4a772824f964a520c0e31fe3",
      "foursquareCategoryIds" : [ "4bf58dd8d48988d1fa931735" ],
      "location" : {
        "lat" : 42.34854988054275,
        "lon" : -71.077401638031
      }
    },
    "lastUpdate" : "20141206T005118Z"
  }, {
    "type" : "place",
    "startTime" : "20141205T180629-0600",
    "endTime" : "20141206T002954-0600",
    "place" : {
      "id" : 117438505,
      "name" : "The Westin Copley Place",
      "type" : "foursquare",
      "foursquareId" : "4a772824f964a520c0e31fe3",
      "foursquareCategoryIds" : [ "4bf58dd8d48988d1fa931735" ],
      "location" : {
        "lat" : 42.34854988054275,
        "lon" : -71.077401638031
      }
    },
    "lastUpdate" : "20141206T081726Z"
  } ],
  "lastUpdate" : "20141217T041832Z"
}, {
  "date" : "20141206",
  "segments" : [ {
    "type" : "place",
    "startTime" : "20141205T180629-0600",
    "endTime" : "20141206T002954-0600",
    "place" : {
      "id" : 117438505,
      "name" : "The Westin Copley Place",
      "type" : "foursquare",
      "foursquareId" : "4a772824f964a520c0e31fe3",
      "foursquareCategoryIds" : [ "4bf58dd8d48988d1fa931735" ],
      "location" : {
        "lat" : 42.34854988054275,
        "lon" : -71.077401638031
      }
    },
    "lastUpdate" : "20141206T081726Z"
  }, {
    "type" : "place",
    "startTime" : "20141206T004552-0600",
    "endTime" : "20141206T104011-0600",
    "place" : {
      "id" : 9869005,
      "name" : "Home",
      "type" : "home",
      "location" : {
        "lat" : 42.3754311174,
        "lon" : -71.1114458017
      }
    },
    "lastUpdate" : "20141206T173718Z"
  }, {
    "type" : "place",
    "startTime" : "20141206T104349-0600",
    "endTime" : "20141206T120631-0600",
    "place" : {
      "id" : 10293866,
      "name" : "Darwin's Ltd.",
      "type" : "foursquare",
      "foursquareId" : "4a1c900cf964a520507b1fe3",
      "foursquareCategoryIds" : [ "4bf58dd8d48988d1c5941735", "4bf58dd8d48988d143941735" ],
      "location" : {
        "lat" : 42.37488104,
        "lon" : -71.109389
      }
    },
    "lastUpdate" : "20141206T221753Z"
  }, {
    "type" : "place",
    "startTime" : "20141206T123214-0600",
    "endTime" : "20141206T123543-0600",
    "place" : {
      "id" : 117422920,
      "name" : "Keezer's",
      "type" : "foursquare",
      "foursquareId" : "4b92a900f964a520c00e34e3",
      "foursquareCategoryIds" : [ "4bf58dd8d48988d103951735" ],
      "location" : {
        "lat" : 42.36377617877598,
        "lon" : -71.10901415348053
      }
    },
    "lastUpdate" : "20141206T221753Z"
  }, {
    "type" : "place",
    "startTime" : "20141206T125618-0600",
    "endTime" : "20141206T233829-0600",
    "place" : {
      "id" : 99453957,
      "name" : "Aldrich Hall",
      "type" : "foursquare",
      "foursquareId" : "4ac64359f964a5206eb320e3",
      "foursquareCategoryIds" : [ "4bf58dd8d48988d198941735" ],
      "location" : {
        "lat" : 42.36578780710847,
        "lon" : -71.12210915179602
      }
    },
    "lastUpdate" : "20141207T075159Z"
  } ],
  "lastUpdate" : "20141207T075159Z"
}, {
  "date" : "20141207",
  "segments" : [ {
    "type" : "place",
    "startTime" : "20141207T000506-0600",
    "endTime" : "20141207T090726-0600",
    "place" : {
      "id" : 9869005,
      "name" : "Home",
      "type" : "home",
      "location" : {
        "lat" : 42.3754311174,
        "lon" : -71.1114458017
      }
    },
    "lastUpdate" : "20141207T202516Z"
  }, {
    "type" : "place",
    "startTime" : "20141207T091924-0600",
    "endTime" : "20141207T104214-0600",
    "place" : {
      "id" : 10149686,
      "name" : "Finale Desserterie & Bakery",
      "type" : "foursquare",
      "foursquareId" : "4ac67e58f964a520a7b420e3",
      "foursquareCategoryIds" : [ "4bf58dd8d48988d1d0941735", "4bf58dd8d48988d1e0931735" ],
      "location" : {
        "lat" : 42.37233336999999,
        "lon" : -71.119179
      }
    },
    "lastUpdate" : "20141207T202516Z"
  }, {
    "type" : "place",
    "startTime" : "20141207T104703-0600",
    "endTime" : "20141207T110202-0600",
    "place" : {
      "id" : 80599491,
      "name" : "Xfund",
      "type" : "foursquare",
      "foursquareId" : "525e96dd11d27846ee214ac8",
      "foursquareCategoryIds" : [ "4bf58dd8d48988d125941735" ],
      "location" : {
        "lat" : 42.37343863629133,
        "lon" : -71.12017109498916
      }
    },
    "lastUpdate" : "20141207T202516Z"
  }, {
    "type" : "place",
    "startTime" : "20141207T112553-0600",
    "endTime" : "20141207T143028-0600",
    "place" : {
      "id" : 84119446,
      "name" : "Aldrich Hall",
      "type" : "foursquare",
      "foursquareId" : "4ac64359f964a5206eb320e3",
      "foursquareCategoryIds" : [ "4bf58dd8d48988d198941735" ],
      "location" : {
        "lat" : 42.36578780710847,
        "lon" : -71.12210915179602
      }
    },
    "lastUpdate" : "20141217T041832Z"
  }, {
    "type" : "place",
    "startTime" : "20141207T145219-0600",
    "endTime" : "20141207T145527-0600",
    "place" : {
      "id" : 18127865,
      "name" : "CVS/pharmacy",
      "type" : "foursquare",
      "foursquareId" : "49df6a3ff964a520c6601fe3",
      "foursquareCategoryIds" : [ "4bf58dd8d48988d10f951735" ],
      "location" : {
        "lat" : 42.37402935435937,
        "lon" : -71.11899197101593
      }
    },
    "lastUpdate" : "20141207T220126Z"
  }, {
    "type" : "place",
    "startTime" : "20141207T150522-0600",
    "endTime" : "20141208T114817-0600",
    "place" : {
      "id" : 9869005,
      "name" : "Home",
      "type" : "home",
      "location" : {
        "lat" : 42.3754311174,
        "lon" : -71.1114458017
      }
    },
    "lastUpdate" : "20141208T210830Z"
  } ],
  "lastUpdate" : "20141217T041832Z"
} ]