[ {
  "date" : "20140915",
  "segments" : [ {
    "type" : "place",
    "startTime" : "20140914T134521-0400",
    "endTime" : "20140915T072606-0400",
    "place" : {
      "id" : 9869005,
      "name" : "Home",
      "type" : "home",
      "location" : {
        "lat" : 42.3754311174,
        "lon" : -71.1114458017
      }
    },
    "lastUpdate" : "20140915T125411Z"
  }, {
    "type" : "place",
    "startTime" : "20140915T075427-0400",
    "endTime" : "20140915T085549-0400",
    "place" : {
      "id" : 87938770,
      "name" : "Harvard Innovation Lab",
      "type" : "foursquare",
      "foursquareId" : "4e5d4676ae60839ea2e29e64",
      "foursquareCategoryIds" : [ "4bf58dd8d48988d19f941735" ],
      "location" : {
        "lat" : 42.36427488545988,
        "lon" : -71.12402979165076
      }
    },
    "lastUpdate" : "20140915T160317Z"
  }, {
    "type" : "place",
    "startTime" : "20140915T090457-0400",
    "endTime" : "20140915T130108-0400",
    "place" : {
      "id" : 84119446,
      "name" : "Aldrich Hall",
      "type" : "foursquare",
      "foursquareId" : "4ac64359f964a5206eb320e3",
      "foursquareCategoryIds" : [ "4bf58dd8d48988d198941735" ],
      "location" : {
        "lat" : 42.36578780710847,
        "lon" : -71.12210915179602
      }
    },
    "lastUpdate" : "20141008T024703Z"
  }, {
    "type" : "place",
    "startTime" : "20140915T132459-0400",
    "endTime" : "20140915T133120-0400",
    "place" : {
      "id" : 9869004,
      "name" : "Broadway Marketplace",
      "type" : "foursquare",
      "foursquareId" : "4a661612f964a520ffc71fe3",
      "foursquareCategoryIds" : [ "4bf58dd8d48988d118951735", "4bf58dd8d48988d1f5941735" ],
      "location" : {
        "lat" : 42.37405171427381,
        "lon" : -71.11300484548056
      }
    },
    "lastUpdate" : "20140917T023809Z"
  }, {
    "type" : "place",
    "startTime" : "20140915T133601-0400",
    "endTime" : "20140915T153003-0400",
    "place" : {
      "id" : 9869005,
      "name" : "Home",
      "type" : "home",
      "location" : {
        "lat" : 42.3754311174,
        "lon" : -71.1114458017
      }
    },
    "lastUpdate" : "20140915T204147Z"
  }, {
    "type" : "place",
    "startTime" : "20140915T155401-0400",
    "endTime" : "20140915T163216-0400",
    "place" : {
      "id" : 84119446,
      "name" : "Aldrich Hall",
      "type" : "foursquare",
      "foursquareId" : "4ac64359f964a5206eb320e3",
      "foursquareCategoryIds" : [ "4bf58dd8d48988d198941735" ],
      "location" : {
        "lat" : 42.36578780710847,
        "lon" : -71.12210915179602
      }
    },
    "lastUpdate" : "20141008T024703Z"
  }, {
    "type" : "place",
    "startTime" : "20140915T163658-0400",
    "endTime" : "20140915T180029-0400",
    "place" : {
      "id" : 87938770,
      "name" : "Harvard Innovation Lab",
      "type" : "foursquare",
      "foursquareId" : "4e5d4676ae60839ea2e29e64",
      "foursquareCategoryIds" : [ "4bf58dd8d48988d19f941735" ],
      "location" : {
        "lat" : 42.36427488545988,
        "lon" : -71.12402979165076
      }
    },
    "lastUpdate" : "20140916T025530Z"
  }, {
    "type" : "place",
    "startTime" : "20140915T184130-0400",
    "endTime" : "20140915T211204-0400",
    "place" : {
      "id" : 9869005,
      "name" : "Home",
      "type" : "home",
      "location" : {
        "lat" : 42.3754311174,
        "lon" : -71.1114458017
      }
    },
    "lastUpdate" : "20140916T025531Z"
  }, {
    "type" : "place",
    "startTime" : "20140915T211958-0400",
    "endTime" : "20140915T224510-0400",
    "place" : {
      "id" : 93925318,
      "name" : "The Kirkland Tap & Trotter",
      "type" : "foursquare",
      "foursquareId" : "52268df493cd24f393bf6d33",
      "foursquareCategoryIds" : [ "4bf58dd8d48988d155941735" ],
      "location" : {
        "lat" : 42.37823398029997,
        "lon" : -71.10686302185059
      }
    },
    "lastUpdate" : "20140917T023831Z"
  }, {
    "type" : "place",
    "startTime" : "20140915T225519-0400",
    "endTime" : "20140916T064819-0400",
    "place" : {
      "id" : 9869005,
      "name" : "Home",
      "type" : "home",
      "location" : {
        "lat" : 42.3754311174,
        "lon" : -71.1114458017
      }
    },
    "lastUpdate" : "20140916T124448Z"
  } ],
  "lastUpdate" : "20141008T024703Z"
}, {
  "date" : "20140916",
  "segments" : [ {
    "type" : "place",
    "startTime" : "20140915T225519-0400",
    "endTime" : "20140916T064819-0400",
    "place" : {
      "id" : 9869005,
      "name" : "Home",
      "type" : "home",
      "location" : {
        "lat" : 42.3754311174,
        "lon" : -71.1114458017
      }
    },
    "lastUpdate" : "20140916T124448Z"
  }, {
    "type" : "place",
    "startTime" : "20140916T065955-0400",
    "endTime" : "20140916T070419-0400",
    "place" : {
      "id" : 24692766,
      "name" : "Starbucks",
      "type" : "foursquare",
      "foursquareId" : "49bc4e56f964a52028541fe3",
      "foursquareCategoryIds" : [ "4bf58dd8d48988d16d941735" ],
      "location" : {
        "lat" : 42.372485,
        "lon" : -71.119452
      }
    },
    "lastUpdate" : "20140917T023722Z"
  }, {
    "type" : "place",
    "startTime" : "20140916T072257-0400",
    "endTime" : "20140916T085232-0400",
    "place" : {
      "id" : 87938770,
      "name" : "Harvard Innovation Lab",
      "type" : "foursquare",
      "foursquareId" : "4e5d4676ae60839ea2e29e64",
      "foursquareCategoryIds" : [ "4bf58dd8d48988d19f941735" ],
      "location" : {
        "lat" : 42.36427488545988,
        "lon" : -71.12402979165076
      }
    },
    "lastUpdate" : "20140916T141617Z"
  }, {
    "type" : "place",
    "startTime" : "20140916T090011-0400",
    "endTime" : "20140916T121539-0400",
    "place" : {
      "id" : 84119446,
      "name" : "Aldrich Hall",
      "type" : "foursquare",
      "foursquareId" : "4ac64359f964a5206eb320e3",
      "foursquareCategoryIds" : [ "4bf58dd8d48988d198941735" ],
      "location" : {
        "lat" : 42.36578780710847,
        "lon" : -71.12210915179602
      }
    },
    "lastUpdate" : "20141008T024703Z"
  }, {
    "type" : "place",
    "startTime" : "20140916T122141-0400",
    "endTime" : "20140916T124600-0400",
    "place" : {
      "id" : 94143591,
      "name" : "Morgan Hall",
      "type" : "foursquare",
      "foursquareId" : "4adf6b74f964a520697a21e3",
      "foursquareCategoryIds" : [ "4bf58dd8d48988d197941735" ],
      "location" : {
        "lat" : 42.36670606297722,
        "lon" : -71.1239079386408
      }
    },
    "lastUpdate" : "20141003T175714Z"
  }, {
    "type" : "place",
    "startTime" : "20140916T130003-0400",
    "endTime" : "20140916T160815-0400",
    "place" : {
      "id" : 84119446,
      "name" : "Aldrich Hall",
      "type" : "foursquare",
      "foursquareId" : "4ac64359f964a5206eb320e3",
      "foursquareCategoryIds" : [ "4bf58dd8d48988d198941735" ],
      "location" : {
        "lat" : 42.36578780710847,
        "lon" : -71.12210915179602
      }
    },
    "lastUpdate" : "20141008T024703Z"
  }, {
    "type" : "place",
    "startTime" : "20140916T163119-0400",
    "endTime" : "20140916T164135-0400",
    "place" : {
      "id" : 9869004,
      "name" : "Broadway Marketplace",
      "type" : "foursquare",
      "foursquareId" : "4a661612f964a520ffc71fe3",
      "foursquareCategoryIds" : [ "4bf58dd8d48988d118951735", "4bf58dd8d48988d1f5941735" ],
      "location" : {
        "lat" : 42.37405171427381,
        "lon" : -71.11300484548056
      }
    },
    "lastUpdate" : "20140917T023809Z"
  }, {
    "type" : "place",
    "startTime" : "20140916T164701-0400",
    "endTime" : "20140916T195106-0400",
    "place" : {
      "id" : 9869005,
      "name" : "Home",
      "type" : "home",
      "location" : {
        "lat" : 42.3754311174,
        "lon" : -71.1114458017
      }
    },
    "lastUpdate" : "20140917T015232Z"
  }, {
    "type" : "place",
    "startTime" : "20140916T201734-0400",
    "endTime" : "20140916T215723-0400",
    "place" : {
      "id" : 22029405,
      "name" : "Park",
      "type" : "foursquare",
      "foursquareId" : "4f7c8902e4b032c26c6798db",
      "foursquareCategoryIds" : [ "4bf58dd8d48988d155941735" ],
      "location" : {
        "lat" : 42.37169409933257,
        "lon" : -71.12097185013617
      }
    },
    "lastUpdate" : "20141112T035927Z"
  }, {
    "type" : "place",
    "startTime" : "20140916T221733-0400",
    "endTime" : "20140917T065440-0400",
    "place" : {
      "id" : 9869005,
      "name" : "Home",
      "type" : "home",
      "location" : {
        "lat" : 42.3754311174,
        "lon" : -71.1114458017
      }
    },
    "lastUpdate" : "20140917T121756Z"
  } ],
  "lastUpdate" : "20141112T035927Z"
}, {
  "date" : "20140917",
  "segments" : [ {
    "type" : "place",
    "startTime" : "20140916T221733-0400",
    "endTime" : "20140917T065440-0400",
    "place" : {
      "id" : 9869005,
      "name" : "Home",
      "type" : "home",
      "location" : {
        "lat" : 42.3754311174,
        "lon" : -71.1114458017
      }
    },
    "lastUpdate" : "20140917T121756Z"
  }, {
    "type" : "place",
    "startTime" : "20140917T072129-0400",
    "endTime" : "20140917T085329-0400",
    "place" : {
      "id" : 11237847,
      "name" : "Harvard Innovation Lab",
      "type" : "foursquare",
      "foursquareId" : "4e5d4676ae60839ea2e29e64",
      "foursquareCategoryIds" : [ "4bf58dd8d48988d19f941735" ],
      "location" : {
        "lat" : 42.36403242532342,
        "lon" : -71.12407621183526
      }
    },
    "lastUpdate" : "20140917T135105Z"
  }, {
    "type" : "place",
    "startTime" : "20140917T090058-0400",
    "endTime" : "20140917T145003-0400",
    "place" : {
      "id" : 84119446,
      "name" : "Aldrich Hall",
      "type" : "foursquare",
      "foursquareId" : "4ac64359f964a5206eb320e3",
      "foursquareCategoryIds" : [ "4bf58dd8d48988d198941735" ],
      "location" : {
        "lat" : 42.36578780710847,
        "lon" : -71.12210915179602
      }
    },
    "lastUpdate" : "20141008T024703Z"
  }, {
    "type" : "place",
    "startTime" : "20140917T161809-0400",
    "endTime" : "20140917T185930-0400",
    "place" : {
      "id" : 9869005,
      "name" : "Home",
      "type" : "home",
      "location" : {
        "lat" : 42.3754311174,
        "lon" : -71.1114458017
      }
    },
    "lastUpdate" : "20140918T003703Z"
  }, {
    "type" : "place",
    "startTime" : "20140917T191006-0400",
    "endTime" : "20140917T200637-0400",
    "place" : {
      "id" : 10042715,
      "name" : "Border Cafe",
      "type" : "foursquare",
      "foursquareId" : "3fd66200f964a520bded1ee3",
      "foursquareCategoryIds" : [ "4bf58dd8d48988d1c1941735", "4bf58dd8d48988d17a941735" ],
      "location" : {
        "lat" : 42.3743468,
        "lon" : -71.120141
      }
    },
    "lastUpdate" : "20140922T170440Z"
  }, {
    "type" : "place",
    "startTime" : "20140917T202247-0400",
    "endTime" : "20140918T072615-0400",
    "place" : {
      "id" : 9869005,
      "name" : "Home",
      "type" : "home",
      "location" : {
        "lat" : 42.3754311174,
        "lon" : -71.1114458017
      }
    },
    "lastUpdate" : "20140918T124656Z"
  } ],
  "lastUpdate" : "20141008T024703Z"
}, {
  "date" : "20140918",
  "segments" : [ {
    "type" : "place",
    "startTime" : "20140917T202247-0400",
    "endTime" : "20140918T072615-0400",
    "place" : {
      "id" : 9869005,
      "name" : "Home",
      "type" : "home",
      "location" : {
        "lat" : 42.3754311174,
        "lon" : -71.1114458017
      }
    },
    "lastUpdate" : "20140918T124656Z"
  }, {
    "type" : "place",
    "startTime" : "20140918T075234-0400",
    "endTime" : "20140918T085332-0400",
    "place" : {
      "id" : 87938770,
      "name" : "Harvard Innovation Lab",
      "type" : "foursquare",
      "foursquareId" : "4e5d4676ae60839ea2e29e64",
      "foursquareCategoryIds" : [ "4bf58dd8d48988d19f941735" ],
      "location" : {
        "lat" : 42.36427488545988,
        "lon" : -71.12402979165076
      }
    },
    "lastUpdate" : "20140918T141809Z"
  }, {
    "type" : "place",
    "startTime" : "20140918T090016-0400",
    "endTime" : "20140918T150807-0400",
    "place" : {
      "id" : 84119446,
      "name" : "Aldrich Hall",
      "type" : "foursquare",
      "foursquareId" : "4ac64359f964a5206eb320e3",
      "foursquareCategoryIds" : [ "4bf58dd8d48988d198941735" ],
      "location" : {
        "lat" : 42.36578780710847,
        "lon" : -71.12210915179602
      }
    },
    "lastUpdate" : "20141008T024703Z"
  }, {
    "type" : "place",
    "startTime" : "20140918T152128-0400",
    "endTime" : "20140918T152856-0400",
    "place" : {
      "id" : 94797101,
      "name" : "RadioShack",
      "type" : "foursquare",
      "foursquareId" : "4af22b6bf964a5204fe621e3",
      "foursquareCategoryIds" : [ "4bf58dd8d48988d122951735" ],
      "location" : {
        "lat" : 42.37280711531639,
        "lon" : -71.11988313496113
      }
    },
    "lastUpdate" : "20140918T205458Z"
  }, {
    "type" : "place",
    "startTime" : "20140918T162753-0400",
    "endTime" : "20140918T171123-0400",
    "place" : {
      "id" : 21596510,
      "type" : "unknown",
      "location" : {
        "lat" : 42.3663871252,
        "lon" : -71.0153481493
      }
    },
    "lastUpdate" : "20140919T023336Z"
  }, {
    "type" : "place",
    "startTime" : "20140918T192132-0400",
    "endTime" : "20140918T193052-0400",
    "place" : {
      "id" : 94832435,
      "type" : "unknown",
      "location" : {
        "lat" : 38.8760558318,
        "lon" : -77.1080911337
      }
    },
    "lastUpdate" : "20140919T023336Z"
  }, {
    "type" : "place",
    "startTime" : "20140918T195201-0400",
    "endTime" : "20140918T204757-0400",
    "place" : {
      "id" : 72319962,
      "name" : "NTN24-Washington, DC",
      "type" : "foursquare",
      "foursquareId" : "4ec5b5509a52756c53a0be9c",
      "foursquareCategoryIds" : [ "4bf58dd8d48988d124941735" ],
      "location" : {
        "lat" : 38.900182458396,
        "lon" : -77.03193625222163
      }
    },
    "lastUpdate" : "20140919T040920Z"
  }, {
    "type" : "place",
    "startTime" : "20140918T224910-0400",
    "endTime" : "20140919T095329-0400",
    "place" : {
      "id" : 28892305,
      "name" : "Laura's Home",
      "type" : "home",
      "location" : {
        "lat" : 38.9219057145,
        "lon" : -77.0772744833
      }
    },
    "lastUpdate" : "20140919T180832Z"
  } ],
  "lastUpdate" : "20141008T024703Z"
}, {
  "date" : "20140919",
  "segments" : [ {
    "type" : "place",
    "startTime" : "20140918T224910-0400",
    "endTime" : "20140919T095329-0400",
    "place" : {
      "id" : 28892305,
      "name" : "Laura's Home",
      "type" : "home",
      "location" : {
        "lat" : 38.9219057145,
        "lon" : -77.0772744833
      }
    },
    "lastUpdate" : "20140919T180832Z"
  }, {
    "type" : "place",
    "startTime" : "20140919T100338-0400",
    "endTime" : "20140919T121715-0400",
    "place" : {
      "id" : 79462350,
      "name" : "Starbucks",
      "type" : "foursquare",
      "foursquareId" : "4ae84ab0f964a52085ae21e3",
      "foursquareCategoryIds" : [ "4bf58dd8d48988d1e0931735" ],
      "location" : {
        "lat" : 38.92009508267315,
        "lon" : -77.07147493555041
      }
    },
    "lastUpdate" : "20140919T180835Z"
  }, {
    "type" : "place",
    "startTime" : "20140919T122708-0400",
    "endTime" : "20140919T125601-0400",
    "place" : {
      "id" : 28892305,
      "name" : "Laura's Home",
      "type" : "home",
      "location" : {
        "lat" : 38.9219057145,
        "lon" : -77.0772744833
      }
    },
    "lastUpdate" : "20140919T180835Z"
  }, {
    "type" : "place",
    "startTime" : "20140919T130315-0400",
    "endTime" : "20140919T130729-0400",
    "place" : {
      "id" : 20430434,
      "name" : "Surfside",
      "type" : "foursquare",
      "foursquareId" : "4a02762ef964a52056711fe3",
      "foursquareCategoryIds" : [ "4bf58dd8d48988d1c1941735", "4bf58dd8d48988d1ce941735", "4bf58dd8d48988d153941735" ],
      "location" : {
        "lat" : 38.92206976004444,
        "lon" : -77.072873711586
      }
    },
    "lastUpdate" : "20140919T180835Z"
  }, {
    "type" : "place",
    "startTime" : "20140919T131427-0400",
    "endTime" : "20140920T151129-0400",
    "place" : {
      "id" : 28892305,
      "name" : "Laura's Home",
      "type" : "home",
      "location" : {
        "lat" : 38.9219057145,
        "lon" : -77.0772744833
      }
    },
    "lastUpdate" : "20140920T205231Z"
  } ],
  "lastUpdate" : "20140920T205231Z"
}, {
  "date" : "20140920",
  "segments" : [ {
    "type" : "place",
    "startTime" : "20140919T131427-0400",
    "endTime" : "20140920T151129-0400",
    "place" : {
      "id" : 28892305,
      "name" : "Laura's Home",
      "type" : "home",
      "location" : {
        "lat" : 38.9219057145,
        "lon" : -77.0772744833
      }
    },
    "lastUpdate" : "20140920T205231Z"
  }, {
    "type" : "place",
    "startTime" : "20140920T152305-0400",
    "endTime" : "20140920T153028-0400",
    "place" : {
      "id" : 19912216,
      "name" : "CVS/pharmacy",
      "type" : "foursquare",
      "foursquareId" : "4a89f3c7f964a520790920e3",
      "foursquareCategoryIds" : [ "4bf58dd8d48988d10f951735" ],
      "location" : {
        "lat" : 38.92005,
        "lon" : -77.071487
      }
    },
    "lastUpdate" : "20140920T205231Z"
  }, {
    "type" : "place",
    "startTime" : "20140920T155406-0400",
    "endTime" : "20140920T155702-0400",
    "place" : {
      "id" : 19912217,
      "name" : "Apple Store",
      "type" : "foursquare",
      "foursquareId" : "4bdb67c03904a59377434a9e",
      "foursquareCategoryIds" : [ "4bf58dd8d48988d122951735" ],
      "location" : {
        "lat" : 38.90590722335151,
        "lon" : -77.0626272217989
      }
    },
    "lastUpdate" : "20140920T205231Z"
  }, {
    "type" : "place",
    "startTime" : "20140920T160205-0400",
    "endTime" : "20140920T162602-0400",
    "place" : {
      "id" : 25822602,
      "name" : "TJ Maxx & HomeGoods",
      "type" : "foursquare",
      "foursquareId" : "522c8c8011d277f9f23b1a0c",
      "foursquareCategoryIds" : [ "4bf58dd8d48988d1f6941735" ],
      "location" : {
        "lat" : 38.90506846179218,
        "lon" : -77.06456095806466
      }
    },
    "lastUpdate" : "20140920T213732Z"
  }, {
    "type" : "place",
    "startTime" : "20140920T164110-0400",
    "endTime" : "20140920T174503-0400",
    "place" : {
      "id" : 61190913,
      "name" : "Sequoia",
      "type" : "foursquare",
      "foursquareId" : "4b1a9856f964a52010ed23e3",
      "foursquareCategoryIds" : [ "4bf58dd8d48988d14e941735" ],
      "location" : {
        "lat" : 38.90101955850752,
        "lon" : -77.0595645904541
      }
    },
    "lastUpdate" : "20140920T230928Z"
  }, {
    "type" : "place",
    "startTime" : "20140920T180408-0400",
    "endTime" : "20140920T191402-0400",
    "place" : {
      "id" : 19912218,
      "name" : "Safeway",
      "type" : "foursquare",
      "foursquareId" : "4bb614dc2f70c9b656d68430",
      "foursquareCategoryIds" : [ "4bf58dd8d48988d118951735", "4bf58dd8d48988d1c9941735", "4bf58dd8d48988d10f951735" ],
      "location" : {
        "lat" : 38.91567980755536,
        "lon" : -77.06758975982666
      }
    },
    "lastUpdate" : "20140921T021515Z"
  }, {
    "type" : "place",
    "startTime" : "20140920T191716-0400",
    "endTime" : "20140920T192940-0400",
    "place" : {
      "id" : 95644197,
      "name" : "D1 D2 - 35th & T",
      "type" : "foursquare",
      "foursquareId" : "4c1ffd70b4e62d7f7481e093",
      "foursquareCategoryIds" : [ "4bf58dd8d48988d12b951735" ],
      "location" : {
        "lat" : 38.915572,
        "lon" : -77.069431
      }
    },
    "lastUpdate" : "20140922T170223Z"
  }, {
    "type" : "place",
    "startTime" : "20140920T194005-0400",
    "endTime" : "20140920T214528-0400",
    "place" : {
      "id" : 28892305,
      "name" : "Laura's Home",
      "type" : "home",
      "location" : {
        "lat" : 38.9219057145,
        "lon" : -77.0772744833
      }
    },
    "lastUpdate" : "20140921T052112Z"
  }, {
    "type" : "place",
    "startTime" : "20140920T215309-0400",
    "endTime" : "20140920T220619-0400",
    "place" : {
      "id" : 96190705,
      "name" : "Zipcar",
      "type" : "foursquare",
      "foursquareId" : "4c52f63f384c76b0ced90e2b",
      "foursquareCategoryIds" : [ "4bf58dd8d48988d1ef941735" ],
      "location" : {
        "lat" : 38.91995,
        "lon" : -77.07023
      }
    },
    "lastUpdate" : "20140922T170235Z"
  } ],
  "lastUpdate" : "20140922T170358Z"
}, {
  "date" : "20140921",
  "segments" : [ {
    "type" : "place",
    "startTime" : "20140921T001503-0400",
    "endTime" : "20140921T124411-0400",
    "place" : {
      "id" : 28892305,
      "name" : "Laura's Home",
      "type" : "home",
      "location" : {
        "lat" : 38.9219057145,
        "lon" : -77.0772744833
      }
    },
    "lastUpdate" : "20140921T191507Z"
  }, {
    "type" : "place",
    "startTime" : "20140921T125302-0400",
    "endTime" : "20140921T130113-0400",
    "place" : {
      "id" : 96190797,
      "name" : "Pearson's Wine & Liquor",
      "type" : "foursquare",
      "foursquareId" : "4a9ed70df964a5206c3b20e3",
      "foursquareCategoryIds" : [ "4bf58dd8d48988d186941735" ],
      "location" : {
        "lat" : 38.92187986446219,
        "lon" : -77.07279324531555
      }
    },
    "lastUpdate" : "20140922T170254Z"
  }, {
    "type" : "place",
    "startTime" : "20140921T130859-0400",
    "endTime" : "20140921T152412-0400",
    "place" : {
      "id" : 28892305,
      "name" : "Laura's Home",
      "type" : "home",
      "location" : {
        "lat" : 38.9219057145,
        "lon" : -77.0772744833
      }
    },
    "lastUpdate" : "20140921T204903Z"
  }, {
    "type" : "place",
    "startTime" : "20140921T155718-0400",
    "endTime" : "20140921T165443-0400",
    "place" : {
      "id" : 21624369,
      "name" : "Ronald Reagan Washington National Airport (DCA)",
      "type" : "foursquare",
      "foursquareId" : "44d17cecf964a5202b361fe3",
      "foursquareCategoryIds" : [ "4bf58dd8d48988d1ed931735" ],
      "location" : {
        "lat" : 38.85304370184257,
        "lon" : -77.04231262207031
      }
    },
    "lastUpdate" : "20140922T170300Z"
  }, {
    "type" : "place",
    "startTime" : "20140921T181239-0400",
    "endTime" : "20140921T181442-0400",
    "place" : {
      "id" : 10149905,
      "name" : "Boston Logan International Airport (BOS)",
      "type" : "foursquare",
      "foursquareId" : "452113b6f964a520bc3a1fe3",
      "foursquareCategoryIds" : [ "4bf58dd8d48988d1ed931735" ],
      "location" : {
        "lat" : 42.36650312404415,
        "lon" : -71.01667642593384
      }
    },
    "lastUpdate" : "20140922T170312Z"
  }, {
    "type" : "place",
    "startTime" : "20140921T191235-0400",
    "endTime" : "20140922T071951-0400",
    "place" : {
      "id" : 9869005,
      "name" : "Home",
      "type" : "home",
      "location" : {
        "lat" : 42.3754311174,
        "lon" : -71.1114458017
      }
    },
    "lastUpdate" : "20140922T165906Z"
  } ],
  "lastUpdate" : "20140922T170425Z"
} ]