[ {
  "date" : "20140519",
  "segments" : [ {
    "type" : "place",
    "startTime" : "20140518T162825-0400",
    "endTime" : "20140519T100332-0400",
    "place" : {
      "id" : 9869005,
      "name" : "Home",
      "type" : "home",
      "location" : {
        "lat" : 42.3754311174,
        "lon" : -71.1114458017
      }
    },
    "lastUpdate" : "20140519T172850Z"
  }, {
    "type" : "place",
    "startTime" : "20140519T100736-0400",
    "endTime" : "20140519T101954-0400",
    "place" : {
      "id" : 51797004,
      "name" : "Starbucks",
      "type" : "foursquare",
      "foursquareId" : "4a5a3eb5f964a520f9b91fe3",
      "foursquareCategoryIds" : [ "4bf58dd8d48988d1e0931735" ],
      "location" : {
        "lat" : 42.373886,
        "lon" : -71.11295
      }
    },
    "lastUpdate" : "20140520T221250Z"
  }, {
    "type" : "place",
    "startTime" : "20140519T103251-0400",
    "endTime" : "20140519T131442-0400",
    "place" : {
      "id" : 10149993,
      "name" : "Proximate",
      "type" : "foursquare",
      "foursquareId" : "51c8c0d1498e5d4d09a48362",
      "foursquareCategoryIds" : [ "4bf58dd8d48988d125941735" ],
      "location" : {
        "lat" : 42.378716,
        "lon" : -71.117205
      }
    },
    "lastUpdate" : "20140519T193153Z"
  }, {
    "type" : "place",
    "startTime" : "20140519T133156-0400",
    "endTime" : "20140520T130746-0400",
    "place" : {
      "id" : 9869005,
      "name" : "Home",
      "type" : "home",
      "location" : {
        "lat" : 42.3754311174,
        "lon" : -71.1114458017
      }
    },
    "lastUpdate" : "20140520T205323Z"
  } ],
  "lastUpdate" : "20140520T221250Z"
}, {
  "date" : "20140520",
  "segments" : [ {
    "type" : "place",
    "startTime" : "20140519T133156-0400",
    "endTime" : "20140520T130746-0400",
    "place" : {
      "id" : 9869005,
      "name" : "Home",
      "type" : "home",
      "location" : {
        "lat" : 42.3754311174,
        "lon" : -71.1114458017
      }
    },
    "lastUpdate" : "20140520T205323Z"
  }, {
    "type" : "place",
    "startTime" : "20140520T133813-0400",
    "endTime" : "20140520T151140-0400",
    "place" : {
      "id" : 29541307,
      "name" : "Boston Marriott Cambridge",
      "type" : "foursquare",
      "foursquareId" : "4a66a899f964a520cbc81fe3",
      "foursquareCategoryIds" : [ "4bf58dd8d48988d1fa931735" ],
      "location" : {
        "lat" : 42.36253950179547,
        "lon" : -71.08609199523926
      }
    },
    "lastUpdate" : "20140520T221236Z"
  }, {
    "type" : "place",
    "startTime" : "20140520T155117-0400",
    "endTime" : "20140521T083910-0400",
    "place" : {
      "id" : 9869005,
      "name" : "Home",
      "type" : "home",
      "location" : {
        "lat" : 42.3754311174,
        "lon" : -71.1114458017
      }
    },
    "lastUpdate" : "20140521T151948Z"
  } ],
  "lastUpdate" : "20140521T151948Z"
}, {
  "date" : "20140521",
  "segments" : [ {
    "type" : "place",
    "startTime" : "20140520T155117-0400",
    "endTime" : "20140521T083910-0400",
    "place" : {
      "id" : 9869005,
      "name" : "Home",
      "type" : "home",
      "location" : {
        "lat" : 42.3754311174,
        "lon" : -71.1114458017
      }
    },
    "lastUpdate" : "20140521T151948Z"
  }, {
    "type" : "place",
    "startTime" : "20140521T085044-0400",
    "endTime" : "20140521T092902-0400",
    "place" : {
      "id" : 10115332,
      "name" : "Spangler Center",
      "type" : "foursquare",
      "foursquareId" : "4aeee0b0f964a52081d421e3",
      "foursquareCategoryIds" : [ "4bf58dd8d48988d1ab941735" ],
      "location" : {
        "lat" : 42.36522543920124,
        "lon" : -71.12218458495514
      }
    },
    "lastUpdate" : "20140522T001300Z"
  }, {
    "type" : "place",
    "startTime" : "20140521T100617-0400",
    "endTime" : "20140521T111530-0400",
    "place" : {
      "id" : 24971084,
      "name" : "Amtrak South Station",
      "type" : "foursquare",
      "foursquareId" : "52e42895498eb9e24848960b",
      "foursquareCategoryIds" : [ "4bf58dd8d48988d129951735" ],
      "location" : {
        "lat" : 42.35141860782156,
        "lon" : -71.0551073348505
      }
    },
    "lastUpdate" : "20140522T001252Z"
  }, {
    "type" : "place",
    "startTime" : "20140521T190328-0400",
    "endTime" : "20140521T190751-0400",
    "place" : {
      "id" : 38434871,
      "type" : "unknown",
      "location" : {
        "lat" : 38.8981863022,
        "lon" : -77.0072616334
      }
    },
    "lastUpdate" : "20140522T001252Z"
  }, {
    "type" : "place",
    "startTime" : "20140521T192837-0400",
    "endTime" : "20140521T201129-0400",
    "place" : {
      "id" : 20153159,
      "name" : "NTN24",
      "type" : "foursquare",
      "foursquareId" : "4ec5b4b38b81dcfdc16568d3",
      "foursquareCategoryIds" : [ "4bf58dd8d48988d124941735" ],
      "location" : {
        "lat" : 38.901567,
        "lon" : -77.032106
      }
    },
    "lastUpdate" : "20140524T044008Z"
  }, {
    "type" : "place",
    "startTime" : "20140521T202628-0400",
    "endTime" : "20140522T175859-0400",
    "place" : {
      "id" : 28892305,
      "name" : "Laura's Home",
      "type" : "home",
      "location" : {
        "lat" : 38.9219057145,
        "lon" : -77.0772744833
      }
    },
    "lastUpdate" : "20140523T015312Z"
  } ],
  "lastUpdate" : "20140524T044008Z"
}, {
  "date" : "20140522",
  "segments" : [ {
    "type" : "place",
    "startTime" : "20140521T202628-0400",
    "endTime" : "20140522T175859-0400",
    "place" : {
      "id" : 28892305,
      "name" : "Laura's Home",
      "type" : "home",
      "location" : {
        "lat" : 38.9219057145,
        "lon" : -77.0772744833
      }
    },
    "lastUpdate" : "20140523T015312Z"
  }, {
    "type" : "place",
    "startTime" : "20140522T190848-0400",
    "endTime" : "20140522T191117-0400",
    "place" : {
      "id" : 52505101,
      "type" : "unknown",
      "location" : {
        "lat" : 38.9012015761,
        "lon" : -77.0364246043
      }
    },
    "lastUpdate" : "20140523T015312Z"
  }, {
    "type" : "place",
    "startTime" : "20140522T191548-0400",
    "endTime" : "20140522T191815-0400",
    "place" : {
      "id" : 52505102,
      "type" : "unknown",
      "location" : {
        "lat" : 38.9012929174,
        "lon" : -77.0386316238
      }
    },
    "lastUpdate" : "20140523T015312Z"
  }, {
    "type" : "place",
    "startTime" : "20140522T193549-0400",
    "endTime" : "20140523T020224-0400",
    "place" : {
      "id" : 20153159,
      "name" : "NTN24",
      "type" : "foursquare",
      "foursquareId" : "4ec5b4b38b81dcfdc16568d3",
      "foursquareCategoryIds" : [ "4bf58dd8d48988d124941735" ],
      "location" : {
        "lat" : 38.901567,
        "lon" : -77.032106
      }
    },
    "lastUpdate" : "20140524T044008Z"
  } ],
  "lastUpdate" : "20140524T044008Z"
}, {
  "date" : "20140523",
  "segments" : [ {
    "type" : "place",
    "startTime" : "20140522T193549-0400",
    "endTime" : "20140523T020224-0400",
    "place" : {
      "id" : 20153159,
      "name" : "NTN24",
      "type" : "foursquare",
      "foursquareId" : "4ec5b4b38b81dcfdc16568d3",
      "foursquareCategoryIds" : [ "4bf58dd8d48988d124941735" ],
      "location" : {
        "lat" : 38.901567,
        "lon" : -77.032106
      }
    },
    "lastUpdate" : "20140524T044008Z"
  }, {
    "type" : "place",
    "startTime" : "20140523T021500-0400",
    "endTime" : "20140523T104121-0400",
    "place" : {
      "id" : 28892305,
      "name" : "Laura's Home",
      "type" : "home",
      "location" : {
        "lat" : 38.9219057145,
        "lon" : -77.0772744833
      }
    },
    "lastUpdate" : "20140523T152915Z"
  }, {
    "type" : "place",
    "startTime" : "20140523T104755-0400",
    "endTime" : "20140523T112809-0400",
    "place" : {
      "id" : 39944300,
      "name" : "Bruegger's Bagels",
      "type" : "foursquare",
      "foursquareId" : "4c139886a1010f47e3d34a18",
      "foursquareCategoryIds" : [ "4bf58dd8d48988d179941735" ],
      "location" : {
        "lat" : 38.92081351829113,
        "lon" : -77.0721173286438
      }
    },
    "lastUpdate" : "20140524T043919Z"
  }, {
    "type" : "place",
    "startTime" : "20140523T115812-0400",
    "endTime" : "20140523T150319-0400",
    "place" : {
      "id" : 19745659,
      "name" : "Cosi",
      "type" : "foursquare",
      "foursquareId" : "4b82b43cf964a5206fdf30e3",
      "foursquareCategoryIds" : [ "4bf58dd8d48988d1c5941735" ],
      "location" : {
        "lat" : 38.90013589417622,
        "lon" : -77.03186315579289
      }
    },
    "lastUpdate" : "20140524T043927Z"
  }, {
    "type" : "place",
    "startTime" : "20140523T150623-0400",
    "endTime" : "20140523T222753-0400",
    "place" : {
      "id" : 20153159,
      "name" : "NTN24",
      "type" : "foursquare",
      "foursquareId" : "4ec5b4b38b81dcfdc16568d3",
      "foursquareCategoryIds" : [ "4bf58dd8d48988d124941735" ],
      "location" : {
        "lat" : 38.901567,
        "lon" : -77.032106
      }
    },
    "lastUpdate" : "20140524T044008Z"
  }, {
    "type" : "place",
    "startTime" : "20140523T224200-0400",
    "endTime" : "20140523T234246-0400",
    "place" : {
      "id" : 38774116,
      "name" : "Daikaya",
      "type" : "foursquare",
      "foursquareId" : "50905502d63e87c2d3448e35",
      "foursquareCategoryIds" : [ "4bf58dd8d48988d1d1941735" ],
      "location" : {
        "lat" : 38.89881525015088,
        "lon" : -77.01967477798462
      }
    },
    "lastUpdate" : "20140524T044017Z"
  } ],
  "lastUpdate" : "20140524T044017Z"
}, {
  "date" : "20140524",
  "segments" : [ {
    "type" : "place",
    "startTime" : "20140524T001303-0400",
    "endTime" : "20140524T123341-0400",
    "place" : {
      "id" : 28892305,
      "name" : "Laura's Home",
      "type" : "home",
      "location" : {
        "lat" : 38.9219057145,
        "lon" : -77.0772744833
      }
    },
    "lastUpdate" : "20140524T183859Z"
  }, {
    "type" : "place",
    "startTime" : "20140524T124248-0400",
    "endTime" : "20140524T135237-0400",
    "place" : {
      "id" : 53224323,
      "name" : "Town Hall",
      "type" : "foursquare",
      "foursquareId" : "46c72ec6f964a520164a1fe3",
      "foursquareCategoryIds" : [ "4bf58dd8d48988d116941735" ],
      "location" : {
        "lat" : 38.91961568567258,
        "lon" : -77.07117855548859
      }
    },
    "lastUpdate" : "20140524T212320Z"
  }, {
    "type" : "place",
    "startTime" : "20140524T142615-0400",
    "endTime" : "20140524T142839-0400",
    "place" : {
      "id" : 53217009,
      "type" : "unknown",
      "location" : {
        "lat" : 38.9107983222,
        "lon" : -77.055736725
      }
    },
    "lastUpdate" : "20140524T212320Z"
  }, {
    "type" : "place",
    "startTime" : "20140524T145013-0400",
    "endTime" : "20140524T185546-0400",
    "place" : {
      "id" : 53336943,
      "name" : "Kramerbooks & Afterwords Cafe",
      "type" : "foursquare",
      "foursquareId" : "40b3de00f964a5202b001fe3",
      "foursquareCategoryIds" : [ "4bf58dd8d48988d16d941735" ],
      "location" : {
        "lat" : 38.91072104167239,
        "lon" : -77.04379320144653
      }
    },
    "lastUpdate" : "20140525T010209Z"
  }, {
    "type" : "place",
    "startTime" : "20140524T191733-0400",
    "endTime" : "20140524T212716-0400",
    "place" : {
      "id" : 39057489,
      "name" : "ChurchKey",
      "type" : "foursquare",
      "foursquareId" : "4adf1a1ff964a520957721e3",
      "foursquareCategoryIds" : [ "4bf58dd8d48988d155941735" ],
      "location" : {
        "lat" : 38.908492,
        "lon" : -77.031603
      }
    },
    "lastUpdate" : "20140525T054218Z"
  }, {
    "type" : "place",
    "startTime" : "20140524T222530-0400",
    "endTime" : "20140524T222953-0400",
    "place" : {
      "id" : 40692302,
      "type" : "unknown",
      "location" : {
        "lat" : 38.9107293958,
        "lon" : -77.0649548316
      }
    },
    "lastUpdate" : "20140525T054218Z"
  }, {
    "type" : "place",
    "startTime" : "20140524T224804-0400",
    "endTime" : "20140524T225541-0400",
    "place" : {
      "id" : 19912216,
      "name" : "CVS/pharmacy",
      "type" : "foursquare",
      "foursquareId" : "4a89f3c7f964a520790920e3",
      "foursquareCategoryIds" : [ "4bf58dd8d48988d10f951735" ],
      "location" : {
        "lat" : 38.92005,
        "lon" : -77.071487
      }
    },
    "lastUpdate" : "20140526T184230Z"
  }, {
    "type" : "place",
    "startTime" : "20140524T230731-0400",
    "endTime" : "20140525T141608-0400",
    "place" : {
      "id" : 28892305,
      "name" : "Laura's Home",
      "type" : "home",
      "location" : {
        "lat" : 38.9219057145,
        "lon" : -77.0772744833
      }
    },
    "lastUpdate" : "20140525T221955Z"
  } ],
  "lastUpdate" : "20140526T184230Z"
}, {
  "date" : "20140525",
  "segments" : [ {
    "type" : "place",
    "startTime" : "20140524T230731-0400",
    "endTime" : "20140525T141608-0400",
    "place" : {
      "id" : 28892305,
      "name" : "Laura's Home",
      "type" : "home",
      "location" : {
        "lat" : 38.9219057145,
        "lon" : -77.0772744833
      }
    },
    "lastUpdate" : "20140525T221955Z"
  }, {
    "type" : "place",
    "startTime" : "20140525T145840-0400",
    "endTime" : "20140525T150712-0400",
    "place" : {
      "id" : 53666723,
      "name" : "Exxon",
      "type" : "foursquare",
      "foursquareId" : "4c6c60d946353704014306bc",
      "foursquareCategoryIds" : [ "4bf58dd8d48988d113951735" ],
      "location" : {
        "lat" : 38.94419628082576,
        "lon" : -77.07778148576988
      }
    },
    "lastUpdate" : "20140525T221955Z"
  }, {
    "type" : "place",
    "startTime" : "20140525T154439-0400",
    "endTime" : "20140525T170307-0400",
    "place" : {
      "id" : 28892305,
      "name" : "Laura's Home",
      "type" : "home",
      "location" : {
        "lat" : 38.9219057145,
        "lon" : -77.0772744833
      }
    },
    "lastUpdate" : "20140525T230623Z"
  }, {
    "type" : "place",
    "startTime" : "20140525T171448-0400",
    "endTime" : "20140525T180942-0400",
    "place" : {
      "id" : 12721207,
      "name" : "Whole Foods Market",
      "type" : "foursquare",
      "foursquareId" : "4aad58b8f964a520d25f20e3",
      "foursquareCategoryIds" : [ "4bf58dd8d48988d118951735", "4bf58dd8d48988d1d3941735", "4bf58dd8d48988d16a941735" ],
      "location" : {
        "lat" : 38.920938,
        "lon" : -77.071804
      }
    },
    "lastUpdate" : "20140525T230623Z"
  }, {
    "type" : "place",
    "startTime" : "20140525T181853-0400",
    "endTime" : "20140526T135954-0400",
    "place" : {
      "id" : 28892305,
      "name" : "Laura's Home",
      "type" : "home",
      "location" : {
        "lat" : 38.9219057145,
        "lon" : -77.0772744833
      }
    },
    "lastUpdate" : "20140526T184220Z"
  } ],
  "lastUpdate" : "20140526T184220Z"
} ]