[ {
  "date" : "20140512",
  "segments" : [ {
    "type" : "place",
    "startTime" : "20140511T125307-0500",
    "endTime" : "20140512T081724-0500",
    "place" : {
      "id" : 9869005,
      "name" : "Home",
      "type" : "home",
      "location" : {
        "lat" : 42.3754311174,
        "lon" : -71.1114458017
      }
    },
    "lastUpdate" : "20140807T114103Z"
  }, {
    "type" : "place",
    "startTime" : "20140512T082816-0500",
    "endTime" : "20140512T120652-0500",
    "place" : {
      "id" : 10149993,
      "name" : "Proximate",
      "type" : "foursquare",
      "foursquareId" : "51c8c0d1498e5d4d09a48362",
      "foursquareCategoryIds" : [ "4bf58dd8d48988d125941735" ],
      "location" : {
        "lat" : 42.378716,
        "lon" : -71.117205
      }
    },
    "lastUpdate" : "20140813T203053Z"
  }, {
    "type" : "place",
    "startTime" : "20140512T122716-0500",
    "endTime" : "20140512T131115-0500",
    "place" : {
      "id" : 19151062,
      "name" : "Grendel's Den Restaurant & Bar",
      "type" : "foursquare",
      "foursquareId" : "3fd66200f964a520bced1ee3",
      "foursquareCategoryIds" : [ "4bf58dd8d48988d116941735", "4bf58dd8d48988d14e941735" ],
      "location" : {
        "lat" : 42.37237675230346,
        "lon" : -71.12077832221985
      }
    },
    "lastUpdate" : "20140512T193245Z"
  }, {
    "type" : "place",
    "startTime" : "20140512T132250-0500",
    "endTime" : "20140512T183317-0500",
    "place" : {
      "id" : 10149993,
      "name" : "Proximate",
      "type" : "foursquare",
      "foursquareId" : "51c8c0d1498e5d4d09a48362",
      "foursquareCategoryIds" : [ "4bf58dd8d48988d125941735" ],
      "location" : {
        "lat" : 42.378716,
        "lon" : -71.117205
      }
    },
    "lastUpdate" : "20140813T203053Z"
  }, {
    "type" : "place",
    "startTime" : "20140512T185335-0500",
    "endTime" : "20140512T202847-0500",
    "place" : {
      "id" : 11959659,
      "name" : "Legal Sea Foods - Charles Square",
      "type" : "foursquare",
      "foursquareId" : "4bdcb5fa3904a59331664f9e",
      "foursquareCategoryIds" : [ "4bf58dd8d48988d1ce941735", "4bf58dd8d48988d14e941735", "4bf58dd8d48988d11e941735" ],
      "location" : {
        "lat" : 42.37220351484281,
        "lon" : -71.1230027436908
      }
    },
    "lastUpdate" : "20140827T214441Z"
  }, {
    "type" : "place",
    "startTime" : "20140512T204755-0500",
    "endTime" : "20140513T091753-0500",
    "place" : {
      "id" : 9869005,
      "name" : "Home",
      "type" : "home",
      "location" : {
        "lat" : 42.3754311174,
        "lon" : -71.1114458017
      }
    },
    "lastUpdate" : "20140807T114103Z"
  } ],
  "lastUpdate" : "20140827T214441Z"
}, {
  "date" : "20140513",
  "segments" : [ {
    "type" : "place",
    "startTime" : "20140512T204755-0500",
    "endTime" : "20140513T091753-0500",
    "place" : {
      "id" : 9869005,
      "name" : "Home",
      "type" : "home",
      "location" : {
        "lat" : 42.3754311174,
        "lon" : -71.1114458017
      }
    },
    "lastUpdate" : "20140807T114103Z"
  }, {
    "type" : "place",
    "startTime" : "20140513T091754-0500",
    "endTime" : "20140513T101123-0500",
    "place" : {
      "id" : 10293866,
      "name" : "Darwin's Ltd.",
      "type" : "foursquare",
      "foursquareId" : "4a1c900cf964a520507b1fe3",
      "foursquareCategoryIds" : [ "4bf58dd8d48988d1c5941735", "4bf58dd8d48988d143941735" ],
      "location" : {
        "lat" : 42.37488104,
        "lon" : -71.109389
      }
    },
    "lastUpdate" : "20140513T200821Z"
  }, {
    "type" : "place",
    "startTime" : "20140513T110115-0500",
    "endTime" : "20140513T114529-0500",
    "place" : {
      "id" : 49212621,
      "name" : "Panera Bread",
      "type" : "foursquare",
      "foursquareId" : "4c76983566be6dcba68ec30f",
      "foursquareCategoryIds" : [ "4bf58dd8d48988d16a941735" ],
      "location" : {
        "lat" : 42.23825762,
        "lon" : -71.178372
      }
    },
    "lastUpdate" : "20140513T224928Z"
  }, {
    "type" : "place",
    "startTime" : "20140513T121005-0500",
    "endTime" : "20140513T145441-0500",
    "place" : {
      "id" : 32905753,
      "name" : "The Pulse Network",
      "type" : "foursquare",
      "foursquareId" : "4c23a07af7ced13aa282216d",
      "foursquareCategoryIds" : [ "4bf58dd8d48988d125941735" ],
      "location" : {
        "lat" : 42.168313,
        "lon" : -71.110937
      }
    },
    "lastUpdate" : "20140513T213950Z"
  }, {
    "type" : "place",
    "startTime" : "20140513T150851-0500",
    "endTime" : "20140513T151920-0500",
    "place" : {
      "id" : 47346412,
      "name" : "Cramer",
      "type" : "foursquare",
      "foursquareId" : "4a6efea1f964a5202bd51fe3",
      "foursquareCategoryIds" : [ "4bf58dd8d48988d124941735" ],
      "location" : {
        "lat" : 42.19840096378687,
        "lon" : -71.15880131721497
      }
    },
    "lastUpdate" : "20140513T213950Z"
  }, {
    "type" : "place",
    "startTime" : "20140513T161506-0500",
    "endTime" : "20140513T185818-0500",
    "place" : {
      "id" : 9869005,
      "name" : "Home",
      "type" : "home",
      "location" : {
        "lat" : 42.3754311174,
        "lon" : -71.1114458017
      }
    },
    "lastUpdate" : "20140807T114103Z"
  }, {
    "type" : "place",
    "startTime" : "20140513T190857-0500",
    "endTime" : "20140513T191958-0500",
    "place" : {
      "id" : 26937397,
      "name" : "Cafe Gato Rojo",
      "type" : "foursquare",
      "foursquareId" : "4b63076ff964a5208c5e2ae3",
      "foursquareCategoryIds" : [ "4bf58dd8d48988d16d941735" ],
      "location" : {
        "lat" : 42.37359441115208,
        "lon" : -71.11834019422531
      }
    },
    "lastUpdate" : "20140514T015336Z"
  }, {
    "type" : "place",
    "startTime" : "20140513T192639-0500",
    "endTime" : "20140513T211145-0500",
    "place" : {
      "id" : 27795038,
      "name" : "Orinoco",
      "type" : "foursquare",
      "foursquareId" : "4f106cace4b072565b8bd1b6",
      "foursquareCategoryIds" : [ "4bf58dd8d48988d152941735" ],
      "location" : {
        "lat" : 42.37190996862827,
        "lon" : -71.12049603929978
      }
    },
    "lastUpdate" : "20141217T041854Z"
  }, {
    "type" : "place",
    "startTime" : "20140513T212908-0500",
    "endTime" : "20140514T081953-0500",
    "place" : {
      "id" : 9869005,
      "name" : "Home",
      "type" : "home",
      "location" : {
        "lat" : 42.3754311174,
        "lon" : -71.1114458017
      }
    },
    "lastUpdate" : "20140807T114103Z"
  } ],
  "lastUpdate" : "20141217T041854Z"
}, {
  "date" : "20140514",
  "segments" : [ {
    "type" : "place",
    "startTime" : "20140513T212908-0500",
    "endTime" : "20140514T081953-0500",
    "place" : {
      "id" : 9869005,
      "name" : "Home",
      "type" : "home",
      "location" : {
        "lat" : 42.3754311174,
        "lon" : -71.1114458017
      }
    },
    "lastUpdate" : "20140807T114103Z"
  }, {
    "type" : "place",
    "startTime" : "20140514T082757-0500",
    "endTime" : "20140514T134636-0500",
    "place" : {
      "id" : 10149993,
      "name" : "Proximate",
      "type" : "foursquare",
      "foursquareId" : "51c8c0d1498e5d4d09a48362",
      "foursquareCategoryIds" : [ "4bf58dd8d48988d125941735" ],
      "location" : {
        "lat" : 42.378716,
        "lon" : -71.117205
      }
    },
    "lastUpdate" : "20140813T203053Z"
  }, {
    "type" : "place",
    "startTime" : "20140514T135620-0500",
    "endTime" : "20140514T144254-0500",
    "place" : {
      "id" : 10042715,
      "name" : "Border Cafe",
      "type" : "foursquare",
      "foursquareId" : "3fd66200f964a520bded1ee3",
      "foursquareCategoryIds" : [ "4bf58dd8d48988d1c1941735", "4bf58dd8d48988d17a941735" ],
      "location" : {
        "lat" : 42.3743468,
        "lon" : -71.120141
      }
    },
    "lastUpdate" : "20141113T153953Z"
  }, {
    "type" : "place",
    "startTime" : "20140514T145157-0500",
    "endTime" : "20140514T171939-0500",
    "place" : {
      "id" : 10149993,
      "name" : "Proximate",
      "type" : "foursquare",
      "foursquareId" : "51c8c0d1498e5d4d09a48362",
      "foursquareCategoryIds" : [ "4bf58dd8d48988d125941735" ],
      "location" : {
        "lat" : 42.378716,
        "lon" : -71.117205
      }
    },
    "lastUpdate" : "20140813T203053Z"
  }, {
    "type" : "place",
    "startTime" : "20140514T173344-0500",
    "endTime" : "20140514T215742-0500",
    "place" : {
      "id" : 9869005,
      "name" : "Home",
      "type" : "home",
      "location" : {
        "lat" : 42.3754311174,
        "lon" : -71.1114458017
      }
    },
    "lastUpdate" : "20140807T114103Z"
  } ],
  "lastUpdate" : "20141113T153953Z"
}, {
  "date" : "20140515",
  "segments" : [ {
    "type" : "place",
    "startTime" : "20140515T095902-0500",
    "endTime" : "20140515T104318-0500",
    "place" : {
      "id" : 29123816,
      "name" : "Dillon House",
      "type" : "foursquare",
      "foursquareId" : "4f451d77e4b093578027fe02",
      "foursquareCategoryIds" : [ "4bf58dd8d48988d197941735" ],
      "location" : {
        "lat" : 42.3665277681994,
        "lon" : -71.1218828522334
      }
    },
    "lastUpdate" : "20140515T220445Z"
  }, {
    "type" : "place",
    "startTime" : "20140515T110824-0500",
    "endTime" : "20140515T120224-0500",
    "place" : {
      "id" : 10149993,
      "name" : "Proximate",
      "type" : "foursquare",
      "foursquareId" : "51c8c0d1498e5d4d09a48362",
      "foursquareCategoryIds" : [ "4bf58dd8d48988d125941735" ],
      "location" : {
        "lat" : 42.378716,
        "lon" : -71.117205
      }
    },
    "lastUpdate" : "20140813T203053Z"
  }, {
    "type" : "place",
    "startTime" : "20140515T121244-0500",
    "endTime" : "20140515T130033-0500",
    "place" : {
      "id" : 10042715,
      "name" : "Border Cafe",
      "type" : "foursquare",
      "foursquareId" : "3fd66200f964a520bded1ee3",
      "foursquareCategoryIds" : [ "4bf58dd8d48988d1c1941735", "4bf58dd8d48988d17a941735" ],
      "location" : {
        "lat" : 42.3743468,
        "lon" : -71.120141
      }
    },
    "lastUpdate" : "20141113T153953Z"
  }, {
    "type" : "place",
    "startTime" : "20140515T131212-0500",
    "endTime" : "20140515T131722-0500",
    "place" : {
      "id" : 10149993,
      "name" : "Proximate",
      "type" : "foursquare",
      "foursquareId" : "51c8c0d1498e5d4d09a48362",
      "foursquareCategoryIds" : [ "4bf58dd8d48988d125941735" ],
      "location" : {
        "lat" : 42.378716,
        "lon" : -71.117205
      }
    },
    "lastUpdate" : "20140813T203053Z"
  }, {
    "type" : "place",
    "startTime" : "20140515T132818-0500",
    "endTime" : "20140515T134244-0500",
    "place" : {
      "id" : 9869005,
      "name" : "Home",
      "type" : "home",
      "location" : {
        "lat" : 42.3754311174,
        "lon" : -71.1114458017
      }
    },
    "lastUpdate" : "20140807T114103Z"
  }, {
    "type" : "place",
    "startTime" : "20140515T135634-0500",
    "endTime" : "20140515T150437-0500",
    "place" : {
      "id" : 10149993,
      "name" : "Proximate",
      "type" : "foursquare",
      "foursquareId" : "51c8c0d1498e5d4d09a48362",
      "foursquareCategoryIds" : [ "4bf58dd8d48988d125941735" ],
      "location" : {
        "lat" : 42.378716,
        "lon" : -71.117205
      }
    },
    "lastUpdate" : "20140813T203053Z"
  }, {
    "type" : "place",
    "startTime" : "20140515T153053-0500",
    "endTime" : "20140515T170315-0500",
    "place" : {
      "id" : 10149993,
      "name" : "Proximate",
      "type" : "foursquare",
      "foursquareId" : "51c8c0d1498e5d4d09a48362",
      "foursquareCategoryIds" : [ "4bf58dd8d48988d125941735" ],
      "location" : {
        "lat" : 42.378716,
        "lon" : -71.117205
      }
    },
    "lastUpdate" : "20140813T203053Z"
  }, {
    "type" : "place",
    "startTime" : "20140515T171522-0500",
    "endTime" : "20140515T201613-0500",
    "place" : {
      "id" : 18730006,
      "name" : "Dickson Bros. True Value",
      "type" : "foursquare",
      "foursquareId" : "4aad3cf3f964a5202f5f20e3",
      "foursquareCategoryIds" : [ "4bf58dd8d48988d112951735" ],
      "location" : {
        "lat" : 42.373343,
        "lon" : -71.120418
      }
    },
    "lastUpdate" : "20140516T025530Z"
  }, {
    "type" : "place",
    "startTime" : "20140515T202851-0500",
    "endTime" : "20140516T085118-0500",
    "place" : {
      "id" : 9869005,
      "name" : "Home",
      "type" : "home",
      "location" : {
        "lat" : 42.3754311174,
        "lon" : -71.1114458017
      }
    },
    "lastUpdate" : "20140807T114103Z"
  } ],
  "lastUpdate" : "20141113T153953Z"
}, {
  "date" : "20140516",
  "segments" : [ {
    "type" : "place",
    "startTime" : "20140515T202851-0500",
    "endTime" : "20140516T085118-0500",
    "place" : {
      "id" : 9869005,
      "name" : "Home",
      "type" : "home",
      "location" : {
        "lat" : 42.3754311174,
        "lon" : -71.1114458017
      }
    },
    "lastUpdate" : "20140807T114103Z"
  }, {
    "type" : "place",
    "startTime" : "20140516T090057-0500",
    "endTime" : "20140516T091317-0500",
    "place" : {
      "id" : 50164180,
      "type" : "unknown",
      "location" : {
        "lat" : 42.377345955,
        "lon" : -71.1163967467
      }
    },
    "lastUpdate" : "20140516T161918Z"
  }, {
    "type" : "place",
    "startTime" : "20140516T092158-0500",
    "endTime" : "20140516T110331-0500",
    "place" : {
      "id" : 10149993,
      "name" : "Proximate",
      "type" : "foursquare",
      "foursquareId" : "51c8c0d1498e5d4d09a48362",
      "foursquareCategoryIds" : [ "4bf58dd8d48988d125941735" ],
      "location" : {
        "lat" : 42.378716,
        "lon" : -71.117205
      }
    },
    "lastUpdate" : "20140813T203053Z"
  }, {
    "type" : "place",
    "startTime" : "20140516T115811-0500",
    "endTime" : "20140516T133249-0500",
    "place" : {
      "id" : 32905753,
      "name" : "The Pulse Network",
      "type" : "foursquare",
      "foursquareId" : "4c23a07af7ced13aa282216d",
      "foursquareCategoryIds" : [ "4bf58dd8d48988d125941735" ],
      "location" : {
        "lat" : 42.168313,
        "lon" : -71.110937
      }
    },
    "lastUpdate" : "20140517T021657Z"
  }, {
    "type" : "place",
    "startTime" : "20140516T140605-0500",
    "endTime" : "20140516T151240-0500",
    "place" : {
      "id" : 50330658,
      "type" : "unknown",
      "location" : {
        "lat" : 42.2931883669,
        "lon" : -71.2639720943
      }
    },
    "lastUpdate" : "20140517T021657Z"
  }, {
    "type" : "place",
    "startTime" : "20140516T161136-0500",
    "endTime" : "20140516T194613-0500",
    "place" : {
      "id" : 9869005,
      "name" : "Home",
      "type" : "home",
      "location" : {
        "lat" : 42.3754311174,
        "lon" : -71.1114458017
      }
    },
    "lastUpdate" : "20140807T114103Z"
  }, {
    "type" : "place",
    "startTime" : "20140516T195724-0500",
    "endTime" : "20140516T200833-0500",
    "place" : {
      "id" : 18127865,
      "name" : "CVS/pharmacy",
      "type" : "foursquare",
      "foursquareId" : "49df6a3ff964a520c6601fe3",
      "foursquareCategoryIds" : [ "4bf58dd8d48988d10f951735" ],
      "location" : {
        "lat" : 42.37402935435937,
        "lon" : -71.11899197101593
      }
    },
    "lastUpdate" : "20140904T194544Z"
  }, {
    "type" : "place",
    "startTime" : "20140516T201902-0500",
    "endTime" : "20140517T124858-0500",
    "place" : {
      "id" : 9869005,
      "name" : "Home",
      "type" : "home",
      "location" : {
        "lat" : 42.3754311174,
        "lon" : -71.1114458017
      }
    },
    "lastUpdate" : "20140807T114103Z"
  } ],
  "lastUpdate" : "20140904T194544Z"
}, {
  "date" : "20140517",
  "segments" : [ {
    "type" : "place",
    "startTime" : "20140516T201902-0500",
    "endTime" : "20140517T124858-0500",
    "place" : {
      "id" : 9869005,
      "name" : "Home",
      "type" : "home",
      "location" : {
        "lat" : 42.3754311174,
        "lon" : -71.1114458017
      }
    },
    "lastUpdate" : "20140807T114103Z"
  }, {
    "type" : "place",
    "startTime" : "20140517T125946-0500",
    "endTime" : "20140517T130608-0500",
    "place" : {
      "id" : 50666178,
      "type" : "unknown",
      "location" : {
        "lat" : 42.3735208074,
        "lon" : -71.1173058895
      }
    },
    "lastUpdate" : "20140517T202715Z"
  }, {
    "type" : "place",
    "startTime" : "20140517T131624-0500",
    "endTime" : "20140517T132710-0500",
    "place" : {
      "id" : 51050611,
      "name" : "FedEx Office Print & Ship Center",
      "type" : "foursquare",
      "foursquareId" : "4a872e01f964a520150320e3",
      "foursquareCategoryIds" : [ "52f2ab2ebcbc57f1066b8b28" ],
      "location" : {
        "lat" : 42.373474,
        "lon" : -71.122612
      }
    },
    "lastUpdate" : "20140518T165547Z"
  }, {
    "type" : "place",
    "startTime" : "20140517T134522-0500",
    "endTime" : "20140517T135352-0500",
    "place" : {
      "id" : 10293866,
      "name" : "Darwin's Ltd.",
      "type" : "foursquare",
      "foursquareId" : "4a1c900cf964a520507b1fe3",
      "foursquareCategoryIds" : [ "4bf58dd8d48988d1c5941735", "4bf58dd8d48988d143941735" ],
      "location" : {
        "lat" : 42.37488104,
        "lon" : -71.109389
      }
    },
    "lastUpdate" : "20140517T202715Z"
  }, {
    "type" : "place",
    "startTime" : "20140517T135730-0500",
    "endTime" : "20140517T144906-0500",
    "place" : {
      "id" : 9869005,
      "name" : "Home",
      "type" : "home",
      "location" : {
        "lat" : 42.3754311174,
        "lon" : -71.1114458017
      }
    },
    "lastUpdate" : "20140807T114103Z"
  }, {
    "type" : "place",
    "startTime" : "20140517T145630-0500",
    "endTime" : "20140517T150117-0500",
    "place" : {
      "id" : 51050693,
      "name" : "Harvard Memorial Hall",
      "type" : "foursquare",
      "foursquareId" : "4abe2f51f964a520e08b20e3",
      "foursquareCategoryIds" : [ "4bf58dd8d48988d198941735" ],
      "location" : {
        "lat" : 42.37585927254782,
        "lon" : -71.11487910771201
      }
    },
    "lastUpdate" : "20140518T165603Z"
  }, {
    "type" : "place",
    "startTime" : "20140517T150531-0500",
    "endTime" : "20140517T193858-0500",
    "place" : {
      "id" : 9869005,
      "name" : "Home",
      "type" : "home",
      "location" : {
        "lat" : 42.3754311174,
        "lon" : -71.1114458017
      }
    },
    "lastUpdate" : "20140807T114103Z"
  }, {
    "type" : "place",
    "startTime" : "20140517T195434-0500",
    "endTime" : "20140517T231537-0500",
    "place" : {
      "id" : 50817934,
      "name" : "The Boathouse",
      "type" : "foursquare",
      "foursquareId" : "50620ab3e4b0100721c85f46",
      "foursquareCategoryIds" : [ "4bf58dd8d48988d11b941735" ],
      "location" : {
        "lat" : 42.37140413215364,
        "lon" : -71.11674755856328
      }
    },
    "lastUpdate" : "20140518T165612Z"
  }, {
    "type" : "place",
    "startTime" : "20140517T232110-0500",
    "endTime" : "20140517T233336-0500",
    "place" : {
      "id" : 18127865,
      "name" : "CVS/pharmacy",
      "type" : "foursquare",
      "foursquareId" : "49df6a3ff964a520c6601fe3",
      "foursquareCategoryIds" : [ "4bf58dd8d48988d10f951735" ],
      "location" : {
        "lat" : 42.37402935435937,
        "lon" : -71.11899197101593
      }
    },
    "lastUpdate" : "20140825T022831Z"
  }, {
    "type" : "place",
    "startTime" : "20140517T234249-0500",
    "endTime" : "20140517T234737-0500",
    "place" : {
      "id" : 50839137,
      "type" : "unknown",
      "location" : {
        "lat" : 42.3742120157,
        "lon" : -71.1148667748
      }
    },
    "lastUpdate" : "20140518T063846Z"
  }, {
    "type" : "place",
    "startTime" : "20140517T235421-0500",
    "endTime" : "20140518T095111-0500",
    "place" : {
      "id" : 9869005,
      "name" : "Home",
      "type" : "home",
      "location" : {
        "lat" : 42.3754311174,
        "lon" : -71.1114458017
      }
    },
    "lastUpdate" : "20140807T114103Z"
  } ],
  "lastUpdate" : "20140825T022831Z"
}, {
  "date" : "20140518",
  "segments" : [ {
    "type" : "place",
    "startTime" : "20140517T235421-0500",
    "endTime" : "20140518T095111-0500",
    "place" : {
      "id" : 9869005,
      "name" : "Home",
      "type" : "home",
      "location" : {
        "lat" : 42.3754311174,
        "lon" : -71.1114458017
      }
    },
    "lastUpdate" : "20140807T114103Z"
  }, {
    "type" : "place",
    "startTime" : "20140518T100455-0500",
    "endTime" : "20140518T101253-0500",
    "place" : {
      "id" : 51050972,
      "name" : "Peet's Coffee & Tea",
      "type" : "foursquare",
      "foursquareId" : "4a60b9adf964a52014c11fe3",
      "foursquareCategoryIds" : [ "4bf58dd8d48988d1e0931735" ],
      "location" : {
        "lat" : 42.372612,
        "lon" : -71.120509
      }
    },
    "lastUpdate" : "20140518T165652Z"
  }, {
    "type" : "place",
    "startTime" : "20140518T101731-0500",
    "endTime" : "20140518T110149-0500",
    "place" : {
      "id" : 30131139,
      "name" : "Tory Row",
      "type" : "foursquare",
      "foursquareId" : "49e79621f964a520cf641fe3",
      "foursquareCategoryIds" : [ "4bf58dd8d48988d14e941735" ],
      "location" : {
        "lat" : 42.373379,
        "lon" : -71.119457
      }
    },
    "lastUpdate" : "20141219T222336Z"
  }, {
    "type" : "place",
    "startTime" : "20140518T112325-0500",
    "endTime" : "20140518T144032-0500",
    "place" : {
      "id" : 9869005,
      "name" : "Home",
      "type" : "home",
      "location" : {
        "lat" : 42.3754311174,
        "lon" : -71.1114458017
      }
    },
    "lastUpdate" : "20140807T114103Z"
  }, {
    "type" : "place",
    "startTime" : "20140518T144339-0500",
    "endTime" : "20140518T152537-0500",
    "place" : {
      "id" : 10293866,
      "name" : "Darwin's Ltd.",
      "type" : "foursquare",
      "foursquareId" : "4a1c900cf964a520507b1fe3",
      "foursquareCategoryIds" : [ "4bf58dd8d48988d1c5941735", "4bf58dd8d48988d143941735" ],
      "location" : {
        "lat" : 42.37488104,
        "lon" : -71.109389
      }
    },
    "lastUpdate" : "20140519T004528Z"
  }, {
    "type" : "place",
    "startTime" : "20140518T152825-0500",
    "endTime" : "20140519T090332-0500",
    "place" : {
      "id" : 9869005,
      "name" : "Home",
      "type" : "home",
      "location" : {
        "lat" : 42.3754311174,
        "lon" : -71.1114458017
      }
    },
    "lastUpdate" : "20140807T114103Z"
  } ],
  "lastUpdate" : "20141219T222336Z"
} ]