[ {
  "date" : "20140519",
  "segments" : [ {
    "type" : "place",
    "startTime" : "20140518T152825-0500",
    "endTime" : "20140519T090332-0500",
    "place" : {
      "id" : 9869005,
      "name" : "Home",
      "type" : "home",
      "location" : {
        "lat" : 42.3754311174,
        "lon" : -71.1114458017
      }
    },
    "lastUpdate" : "20140807T114103Z"
  }, {
    "type" : "place",
    "startTime" : "20140519T090736-0500",
    "endTime" : "20140519T091954-0500",
    "place" : {
      "id" : 51797004,
      "name" : "Starbucks",
      "type" : "foursquare",
      "foursquareId" : "4a5a3eb5f964a520f9b91fe3",
      "foursquareCategoryIds" : [ "4bf58dd8d48988d1e0931735" ],
      "location" : {
        "lat" : 42.373886,
        "lon" : -71.11295
      }
    },
    "lastUpdate" : "20140917T023809Z"
  }, {
    "type" : "place",
    "startTime" : "20140519T093251-0500",
    "endTime" : "20140519T121442-0500",
    "place" : {
      "id" : 10149993,
      "name" : "Proximate",
      "type" : "foursquare",
      "foursquareId" : "51c8c0d1498e5d4d09a48362",
      "foursquareCategoryIds" : [ "4bf58dd8d48988d125941735" ],
      "location" : {
        "lat" : 42.378716,
        "lon" : -71.117205
      }
    },
    "lastUpdate" : "20140813T203053Z"
  }, {
    "type" : "place",
    "startTime" : "20140519T123156-0500",
    "endTime" : "20140520T120746-0500",
    "place" : {
      "id" : 9869005,
      "name" : "Home",
      "type" : "home",
      "location" : {
        "lat" : 42.3754311174,
        "lon" : -71.1114458017
      }
    },
    "lastUpdate" : "20140807T114103Z"
  } ],
  "lastUpdate" : "20140917T023809Z"
}, {
  "date" : "20140520",
  "segments" : [ {
    "type" : "place",
    "startTime" : "20140519T123156-0500",
    "endTime" : "20140520T120746-0500",
    "place" : {
      "id" : 9869005,
      "name" : "Home",
      "type" : "home",
      "location" : {
        "lat" : 42.3754311174,
        "lon" : -71.1114458017
      }
    },
    "lastUpdate" : "20140807T114103Z"
  }, {
    "type" : "place",
    "startTime" : "20140520T123813-0500",
    "endTime" : "20140520T141140-0500",
    "place" : {
      "id" : 29541307,
      "name" : "Boston Marriott Cambridge",
      "type" : "foursquare",
      "foursquareId" : "4a66a899f964a520cbc81fe3",
      "foursquareCategoryIds" : [ "4bf58dd8d48988d1fa931735" ],
      "location" : {
        "lat" : 42.36253950179547,
        "lon" : -71.08609199523926
      }
    },
    "lastUpdate" : "20140520T221236Z"
  }, {
    "type" : "place",
    "startTime" : "20140520T145117-0500",
    "endTime" : "20140521T073910-0500",
    "place" : {
      "id" : 9869005,
      "name" : "Home",
      "type" : "home",
      "location" : {
        "lat" : 42.3754311174,
        "lon" : -71.1114458017
      }
    },
    "lastUpdate" : "20140807T114103Z"
  } ],
  "lastUpdate" : "20140807T114103Z"
}, {
  "date" : "20140521",
  "segments" : [ {
    "type" : "place",
    "startTime" : "20140520T145117-0500",
    "endTime" : "20140521T073910-0500",
    "place" : {
      "id" : 9869005,
      "name" : "Home",
      "type" : "home",
      "location" : {
        "lat" : 42.3754311174,
        "lon" : -71.1114458017
      }
    },
    "lastUpdate" : "20140807T114103Z"
  }, {
    "type" : "place",
    "startTime" : "20140521T075044-0500",
    "endTime" : "20140521T082902-0500",
    "place" : {
      "id" : 10115332,
      "name" : "Spangler Center",
      "type" : "foursquare",
      "foursquareId" : "4aeee0b0f964a52081d421e3",
      "foursquareCategoryIds" : [ "4bf58dd8d48988d1ab941735" ],
      "location" : {
        "lat" : 42.36522543920124,
        "lon" : -71.12218458495514
      }
    },
    "lastUpdate" : "20141129T021506Z"
  }, {
    "type" : "place",
    "startTime" : "20140521T090617-0500",
    "endTime" : "20140521T101530-0500",
    "place" : {
      "id" : 24971084,
      "name" : "Amtrak South Station",
      "type" : "foursquare",
      "foursquareId" : "52e42895498eb9e24848960b",
      "foursquareCategoryIds" : [ "4bf58dd8d48988d129951735" ],
      "location" : {
        "lat" : 42.35141860782156,
        "lon" : -71.0551073348505
      }
    },
    "lastUpdate" : "20140522T001252Z"
  }, {
    "type" : "place",
    "startTime" : "20140521T180328-0500",
    "endTime" : "20140521T180751-0500",
    "place" : {
      "id" : 38434871,
      "type" : "unknown",
      "location" : {
        "lat" : 38.8981863022,
        "lon" : -77.0072616334
      }
    },
    "lastUpdate" : "20140522T001252Z"
  }, {
    "type" : "place",
    "startTime" : "20140521T182837-0500",
    "endTime" : "20140521T191129-0500",
    "place" : {
      "id" : 20153159,
      "name" : "NTN24",
      "type" : "foursquare",
      "foursquareId" : "4ec5b4b38b81dcfdc16568d3",
      "foursquareCategoryIds" : [ "4bf58dd8d48988d124941735" ],
      "location" : {
        "lat" : 38.901567,
        "lon" : -77.032106
      }
    },
    "lastUpdate" : "20140717T154758Z"
  }, {
    "type" : "place",
    "startTime" : "20140521T192628-0500",
    "endTime" : "20140522T165859-0500",
    "place" : {
      "id" : 28892305,
      "name" : "Laura's Home",
      "type" : "home",
      "location" : {
        "lat" : 38.9219057145,
        "lon" : -77.0772744833
      }
    },
    "lastUpdate" : "20140523T015312Z"
  } ],
  "lastUpdate" : "20141129T021506Z"
}, {
  "date" : "20140522",
  "segments" : [ {
    "type" : "place",
    "startTime" : "20140521T192628-0500",
    "endTime" : "20140522T165859-0500",
    "place" : {
      "id" : 28892305,
      "name" : "Laura's Home",
      "type" : "home",
      "location" : {
        "lat" : 38.9219057145,
        "lon" : -77.0772744833
      }
    },
    "lastUpdate" : "20140523T015312Z"
  }, {
    "type" : "place",
    "startTime" : "20140522T180848-0500",
    "endTime" : "20140522T181117-0500",
    "place" : {
      "id" : 52505101,
      "type" : "unknown",
      "location" : {
        "lat" : 38.9012015761,
        "lon" : -77.0364246043
      }
    },
    "lastUpdate" : "20140523T015312Z"
  }, {
    "type" : "place",
    "startTime" : "20140522T181548-0500",
    "endTime" : "20140522T181815-0500",
    "place" : {
      "id" : 52505102,
      "type" : "unknown",
      "location" : {
        "lat" : 38.9012929174,
        "lon" : -77.0386316238
      }
    },
    "lastUpdate" : "20140523T015312Z"
  }, {
    "type" : "place",
    "startTime" : "20140522T183549-0500",
    "endTime" : "20140523T010224-0500",
    "place" : {
      "id" : 20153159,
      "name" : "NTN24",
      "type" : "foursquare",
      "foursquareId" : "4ec5b4b38b81dcfdc16568d3",
      "foursquareCategoryIds" : [ "4bf58dd8d48988d124941735" ],
      "location" : {
        "lat" : 38.901567,
        "lon" : -77.032106
      }
    },
    "lastUpdate" : "20140717T154758Z"
  } ],
  "lastUpdate" : "20140717T154758Z"
}, {
  "date" : "20140523",
  "segments" : [ {
    "type" : "place",
    "startTime" : "20140522T183549-0500",
    "endTime" : "20140523T010224-0500",
    "place" : {
      "id" : 20153159,
      "name" : "NTN24",
      "type" : "foursquare",
      "foursquareId" : "4ec5b4b38b81dcfdc16568d3",
      "foursquareCategoryIds" : [ "4bf58dd8d48988d124941735" ],
      "location" : {
        "lat" : 38.901567,
        "lon" : -77.032106
      }
    },
    "lastUpdate" : "20140717T154758Z"
  }, {
    "type" : "place",
    "startTime" : "20140523T011500-0500",
    "endTime" : "20140523T094121-0500",
    "place" : {
      "id" : 28892305,
      "name" : "Laura's Home",
      "type" : "home",
      "location" : {
        "lat" : 38.9219057145,
        "lon" : -77.0772744833
      }
    },
    "lastUpdate" : "20140523T152915Z"
  }, {
    "type" : "place",
    "startTime" : "20140523T094755-0500",
    "endTime" : "20140523T102809-0500",
    "place" : {
      "id" : 39944300,
      "name" : "Bruegger's Bagels",
      "type" : "foursquare",
      "foursquareId" : "4c139886a1010f47e3d34a18",
      "foursquareCategoryIds" : [ "4bf58dd8d48988d179941735" ],
      "location" : {
        "lat" : 38.92081351829113,
        "lon" : -77.0721173286438
      }
    },
    "lastUpdate" : "20140524T043919Z"
  }, {
    "type" : "place",
    "startTime" : "20140523T105812-0500",
    "endTime" : "20140523T140319-0500",
    "place" : {
      "id" : 19745659,
      "name" : "Cosi",
      "type" : "foursquare",
      "foursquareId" : "4b82b43cf964a5206fdf30e3",
      "foursquareCategoryIds" : [ "4bf58dd8d48988d1c5941735" ],
      "location" : {
        "lat" : 38.90013589417622,
        "lon" : -77.03186315579289
      }
    },
    "lastUpdate" : "20140717T154757Z"
  }, {
    "type" : "place",
    "startTime" : "20140523T140623-0500",
    "endTime" : "20140523T212753-0500",
    "place" : {
      "id" : 20153159,
      "name" : "NTN24",
      "type" : "foursquare",
      "foursquareId" : "4ec5b4b38b81dcfdc16568d3",
      "foursquareCategoryIds" : [ "4bf58dd8d48988d124941735" ],
      "location" : {
        "lat" : 38.901567,
        "lon" : -77.032106
      }
    },
    "lastUpdate" : "20140524T044008Z"
  }, {
    "type" : "place",
    "startTime" : "20140523T214200-0500",
    "endTime" : "20140523T224246-0500",
    "place" : {
      "id" : 38774116,
      "name" : "Daikaya",
      "type" : "foursquare",
      "foursquareId" : "50905502d63e87c2d3448e35",
      "foursquareCategoryIds" : [ "4bf58dd8d48988d1d1941735" ],
      "location" : {
        "lat" : 38.89881525015088,
        "lon" : -77.01967477798462
      }
    },
    "lastUpdate" : "20140524T044017Z"
  }, {
    "type" : "place",
    "startTime" : "20140523T231303-0500",
    "endTime" : "20140524T113341-0500",
    "place" : {
      "id" : 28892305,
      "name" : "Laura's Home",
      "type" : "home",
      "location" : {
        "lat" : 38.9219057145,
        "lon" : -77.0772744833
      }
    },
    "lastUpdate" : "20140524T183859Z"
  } ],
  "lastUpdate" : "20140717T154758Z"
}, {
  "date" : "20140524",
  "segments" : [ {
    "type" : "place",
    "startTime" : "20140523T231303-0500",
    "endTime" : "20140524T113341-0500",
    "place" : {
      "id" : 28892305,
      "name" : "Laura's Home",
      "type" : "home",
      "location" : {
        "lat" : 38.9219057145,
        "lon" : -77.0772744833
      }
    },
    "lastUpdate" : "20140524T183859Z"
  }, {
    "type" : "place",
    "startTime" : "20140524T114248-0500",
    "endTime" : "20140524T125237-0500",
    "place" : {
      "id" : 53224323,
      "name" : "Town Hall",
      "type" : "foursquare",
      "foursquareId" : "46c72ec6f964a520164a1fe3",
      "foursquareCategoryIds" : [ "4bf58dd8d48988d116941735" ],
      "location" : {
        "lat" : 38.91961568567258,
        "lon" : -77.07117855548859
      }
    },
    "lastUpdate" : "20140524T212320Z"
  }, {
    "type" : "place",
    "startTime" : "20140524T132615-0500",
    "endTime" : "20140524T132839-0500",
    "place" : {
      "id" : 53217009,
      "type" : "unknown",
      "location" : {
        "lat" : 38.9107983222,
        "lon" : -77.055736725
      }
    },
    "lastUpdate" : "20140524T212320Z"
  }, {
    "type" : "place",
    "startTime" : "20140524T135013-0500",
    "endTime" : "20140524T175546-0500",
    "place" : {
      "id" : 53336943,
      "name" : "Kramerbooks & Afterwords Cafe",
      "type" : "foursquare",
      "foursquareId" : "40b3de00f964a5202b001fe3",
      "foursquareCategoryIds" : [ "4bf58dd8d48988d16d941735" ],
      "location" : {
        "lat" : 38.91072104167239,
        "lon" : -77.04379320144653
      }
    },
    "lastUpdate" : "20140525T010209Z"
  }, {
    "type" : "place",
    "startTime" : "20140524T181733-0500",
    "endTime" : "20140524T202716-0500",
    "place" : {
      "id" : 39057489,
      "name" : "ChurchKey",
      "type" : "foursquare",
      "foursquareId" : "4adf1a1ff964a520957721e3",
      "foursquareCategoryIds" : [ "4bf58dd8d48988d155941735" ],
      "location" : {
        "lat" : 38.908492,
        "lon" : -77.031603
      }
    },
    "lastUpdate" : "20140525T054218Z"
  }, {
    "type" : "place",
    "startTime" : "20140524T212530-0500",
    "endTime" : "20140524T212953-0500",
    "place" : {
      "id" : 40692302,
      "type" : "unknown",
      "location" : {
        "lat" : 38.9107293958,
        "lon" : -77.0649548316
      }
    },
    "lastUpdate" : "20140525T054218Z"
  }, {
    "type" : "place",
    "startTime" : "20140524T214804-0500",
    "endTime" : "20140524T215541-0500",
    "place" : {
      "id" : 19912216,
      "name" : "CVS/pharmacy",
      "type" : "foursquare",
      "foursquareId" : "4a89f3c7f964a520790920e3",
      "foursquareCategoryIds" : [ "4bf58dd8d48988d10f951735" ],
      "location" : {
        "lat" : 38.92005,
        "lon" : -77.071487
      }
    },
    "lastUpdate" : "20140526T184230Z"
  }, {
    "type" : "place",
    "startTime" : "20140524T220731-0500",
    "endTime" : "20140525T131608-0500",
    "place" : {
      "id" : 28892305,
      "name" : "Laura's Home",
      "type" : "home",
      "location" : {
        "lat" : 38.9219057145,
        "lon" : -77.0772744833
      }
    },
    "lastUpdate" : "20140525T221955Z"
  } ],
  "lastUpdate" : "20140526T184230Z"
}, {
  "date" : "20140525",
  "segments" : [ {
    "type" : "place",
    "startTime" : "20140524T220731-0500",
    "endTime" : "20140525T131608-0500",
    "place" : {
      "id" : 28892305,
      "name" : "Laura's Home",
      "type" : "home",
      "location" : {
        "lat" : 38.9219057145,
        "lon" : -77.0772744833
      }
    },
    "lastUpdate" : "20140525T221955Z"
  }, {
    "type" : "place",
    "startTime" : "20140525T135840-0500",
    "endTime" : "20140525T140712-0500",
    "place" : {
      "id" : 53666723,
      "name" : "Exxon",
      "type" : "foursquare",
      "foursquareId" : "4c6c60d946353704014306bc",
      "foursquareCategoryIds" : [ "4bf58dd8d48988d113951735" ],
      "location" : {
        "lat" : 38.94419628082576,
        "lon" : -77.07778148576988
      }
    },
    "lastUpdate" : "20140525T221955Z"
  }, {
    "type" : "place",
    "startTime" : "20140525T144439-0500",
    "endTime" : "20140525T160307-0500",
    "place" : {
      "id" : 28892305,
      "name" : "Laura's Home",
      "type" : "home",
      "location" : {
        "lat" : 38.9219057145,
        "lon" : -77.0772744833
      }
    },
    "lastUpdate" : "20140525T230623Z"
  }, {
    "type" : "place",
    "startTime" : "20140525T161448-0500",
    "endTime" : "20140525T170942-0500",
    "place" : {
      "id" : 12721207,
      "name" : "Whole Foods Market",
      "type" : "foursquare",
      "foursquareId" : "4aad58b8f964a520d25f20e3",
      "foursquareCategoryIds" : [ "4bf58dd8d48988d118951735", "4bf58dd8d48988d1d3941735", "4bf58dd8d48988d16a941735" ],
      "location" : {
        "lat" : 38.920938,
        "lon" : -77.071804
      }
    },
    "lastUpdate" : "20141219T222326Z"
  }, {
    "type" : "place",
    "startTime" : "20140525T171853-0500",
    "endTime" : "20140526T125954-0500",
    "place" : {
      "id" : 28892305,
      "name" : "Laura's Home",
      "type" : "home",
      "location" : {
        "lat" : 38.9219057145,
        "lon" : -77.0772744833
      }
    },
    "lastUpdate" : "20140526T184220Z"
  } ],
  "lastUpdate" : "20141219T222326Z"
} ]