Date,Name,Start,End,Duration,Latitude,Longitude,Category,Link
8/1/14,Laura's Home,2014-08-01T00:00:00-04:00,2014-08-01T10:27:16-04:00,37636,38.9219057145,-77.0772744833,Home,
8/1/14,"WMATA Bus Stop #1001805 (31, 32, 36)",2014-08-01T10:33:38-04:00,2014-08-01T10:41:32-04:00,474,38.92229853987276,-77.07277336996707,Bus Line,http://foursquare.com/venue/4e9b7ac54901d3b0b7587b98
8/1/14,Starbucks,2014-08-01T11:12:44-04:00,2014-08-01T12:29:23-04:00,4599,38.89947134437488,-77.03195312062199,Coffee Shop,http://foursquare.com/venue/4af5b4c8f964a520a6fb21e3
8/1/14,Farragut Square,2014-08-01T12:51:34-04:00,2014-08-01T13:53:22-04:00,3708,38.90185450592493,-77.03898668289185,Park,http://foursquare.com/venue/49e7923cf964a520c6641fe3
8/1/14,"NTN24-Washington, DC",2014-08-01T14:04:42-04:00,2014-08-01T18:32:37-04:00,16075,38.900182458396,-77.03193625222163,Office,http://foursquare.com/venue/4ec5b5509a52756c53a0be9c
8/1/14,Chinatown Express,2014-08-01T18:49:28-04:00,2014-08-01T19:44:49-04:00,3321,38.899633,-77.019893,Chinese Restaurant,http://foursquare.com/venue/465b42cdf964a52027471fe3
8/1/14,"WMATA Bus Stop #1001060 (11Y, 32, 36)",2014-08-01T20:07:56-04:00,2014-08-01T20:23:14-04:00,918,38.899766,-77.033571,Bus Station,http://foursquare.com/venue/4e7cf2330aafcfb3b125a8aa
8/1/14,Laura's Home,2014-08-01T20:57:29-04:00,2014-08-02T00:00:00-04:00,10951,38.9219057145,-77.0772744833,Home,
