Date,Name,Start,End,Duration,Latitude,Longitude,Category,Link
12/4/13,945 S Batavia Ave,2013-12-04T00:00:00-06:00,2013-12-04T11:48:13-06:00,42493,41.87250621617115,-88.30935165928999,,http://foursquare.com/venue/4f629428e4b075c7117d49d3
12/4/13,Place in O'Hare International Airport,2013-12-04T12:38:22-06:00,2013-12-04T12:47:18-06:00,536,41.9772196045,-87.899172412,,
12/4/13,Chicago O'Hare International Airport (ORD),2013-12-04T12:49:54-06:00,2013-12-04T14:26:39-06:00,5805,41.97727092004163,-87.90440082550049,,http://foursquare.com/venue/4a5a77a4f964a52062ba1fe3
12/4/13,Boston Logan International Airport (BOS),2013-12-04T16:13:04-06:00,2013-12-04T16:39:33-06:00,1589,42.36650312404415,-71.01667642593384,Airport,http://foursquare.com/venue/452113b6f964a520bc3a1fe3
12/4/13,Broadway Marketplace,2013-12-04T17:22:24-06:00,2013-12-04T17:26:44-06:00,260,42.37405171427381,-71.11300484548056,Grocery Store,http://foursquare.com/venue/4a661612f964a520ffc71fe3
12/4/13,Home,2013-12-04T17:34:00-06:00,2013-12-05T00:00:00-06:00,23160,42.3754311174,-71.1114458017,Home,
