Date,Name,Start,End,Duration,Latitude,Longitude,Category,Link
7/15/14,Laura's Home,2014-07-15T00:00:00-05:00,2014-07-15T08:02:22-05:00,28942,38.9219057145,-77.0772744833,Home,
7/15/14,"WMATA Bus Stop #1001805 (31, 32, 36)",2014-07-15T08:07:39-05:00,2014-07-15T08:17:11-05:00,572,38.92229853987276,-77.07277336996707,Bus Line,http://foursquare.com/venue/4e9b7ac54901d3b0b7587b98
7/15/14,Starbucks,2014-07-15T08:48:48-05:00,2014-07-15T11:24:09-05:00,9321,38.89947134437488,-77.03195312062199,Coffee Shop,http://foursquare.com/venue/4af5b4c8f964a520a6fb21e3
7/15/14,Eat at National Place,2014-07-15T11:37:52-05:00,2014-07-15T11:42:21-05:00,269,38.89736635211879,-77.03016505709523,Food Court,http://foursquare.com/venue/4b607467f964a520f1e629e3
7/15/14,NTN24,2014-07-15T11:55:47-05:00,2014-07-15T13:09:15-05:00,4408,38.901567,-77.032106,Office,http://foursquare.com/venue/4ec5b4b38b81dcfdc16568d3
7/15/14,NTN24,2014-07-15T13:23:06-05:00,2014-07-15T17:51:41-05:00,16115,38.901567,-77.032106,Office,http://foursquare.com/venue/4ec5b4b38b81dcfdc16568d3
7/15/14,Laura's Home,2014-07-15T18:34:55-05:00,2014-07-16T00:00:00-05:00,19505,38.9219057145,-77.0772744833,Home,
