Date,Name,Start,End,Duration,Latitude,Longitude,Category,Link
10/6/14,Home,2014-10-06T00:00:00-05:00,2014-10-06T07:36:03-05:00,27363,42.3754311174,-71.1114458017,Home,
10/6/14,Aldrich Hall,2014-10-06T07:59:05-05:00,2014-10-06T11:30:17-05:00,12672,42.36578780710847,-71.12210915179602,College Academic Building,http://foursquare.com/venue/4ac64359f964a5206eb320e3
10/6/14,Harvard Alumni Association,2014-10-06T11:44:09-05:00,2014-10-06T12:25:39-05:00,2490,42.37317592010315,-71.12325225275964,University,http://foursquare.com/venue/4b5dc68df964a520026b29e3
10/6/14,Hawes Hall,2014-10-06T12:40:36-05:00,2014-10-06T13:01:25-05:00,1249,42.36619007495005,-71.12150568601143,College Academic Building,http://foursquare.com/venue/4addbdfaf964a520936521e3
10/6/14,Starbucks,2014-10-06T13:17:00-05:00,2014-10-06T13:58:03-05:00,2463,42.374494,-71.12017,Coffee Shop,http://foursquare.com/venue/49cabb79f964a520d8581fe3
10/6/14,Proximate,2014-10-06T17:18:00-05:00,2014-10-06T18:18:02-05:00,3602,42.378716,-71.117205,Tech Startup,http://foursquare.com/venue/51c8c0d1498e5d4d09a48362
10/6/14,Park,2014-10-06T18:30:52-05:00,2014-10-06T20:09:52-05:00,5940,42.37169409933257,-71.12097185013617,Gastropub,http://foursquare.com/venue/4f7c8902e4b032c26c6798db
10/6/14,Bank Of America,2014-10-06T20:15:34-05:00,2014-10-06T20:17:59-05:00,145,42.37360433115195,-71.11902218263484,Bank,http://foursquare.com/venue/4ab24fd3f964a520ea6a20e3
10/6/14,Home,2014-10-06T20:32:36-05:00,2014-10-07T00:00:00-05:00,12444,42.3754311174,-71.1114458017,Home,
