Date,Name,Start,End,Duration,Latitude,Longitude,Category,Link
10/6/14,Home,2014-10-06T00:00:00-04:00,2014-10-06T08:36:03-04:00,30963,42.3754311174,-71.1114458017,Home,
10/6/14,Aldrich Hall,2014-10-06T08:59:05-04:00,2014-10-06T12:30:17-04:00,12672,42.36578780710847,-71.12210915179602,College Academic Building,http://foursquare.com/venue/4ac64359f964a5206eb320e3
10/6/14,Harvard Alumni Association,2014-10-06T12:44:09-04:00,2014-10-06T13:25:39-04:00,2490,42.37317592010315,-71.12325225275964,University,http://foursquare.com/venue/4b5dc68df964a520026b29e3
10/6/14,Hawes Hall,2014-10-06T13:40:36-04:00,2014-10-06T14:01:25-04:00,1249,42.36619007495005,-71.12150568601143,College Academic Building,http://foursquare.com/venue/4addbdfaf964a520936521e3
10/6/14,Starbucks,2014-10-06T14:17:00-04:00,2014-10-06T14:58:03-04:00,2463,42.374494,-71.12017,Coffee Shop,http://foursquare.com/venue/49cabb79f964a520d8581fe3
10/6/14,Proximate,2014-10-06T18:18:00-04:00,2014-10-06T19:18:02-04:00,3602,42.378716,-71.117205,Tech Startup,http://foursquare.com/venue/51c8c0d1498e5d4d09a48362
10/6/14,Park,2014-10-06T19:30:52-04:00,2014-10-06T21:09:52-04:00,5940,42.37169409933257,-71.12097185013617,Gastropub,http://foursquare.com/venue/4f7c8902e4b032c26c6798db
10/6/14,Bank Of America,2014-10-06T21:15:34-04:00,2014-10-06T21:17:59-04:00,145,42.37360433115195,-71.11902218263484,Bank,http://foursquare.com/venue/4ab24fd3f964a520ea6a20e3
10/6/14,Home,2014-10-06T21:32:36-04:00,2014-10-07T00:00:00-04:00,8844,42.3754311174,-71.1114458017,Home,
