Date,Name,Start,End,Duration,Latitude,Longitude,Category,Link
12/20/13,2440 39th Street NW,2013-12-20T00:00:00-05:00,2013-12-20T15:02:25-05:00,54145,38.92592014653639,-77.07371486668141,,http://foursquare.com/venue/520fad54498e47affbce37d4
12/20/13,Place in East End,2013-12-20T15:33:49-05:00,2013-12-20T15:42:55-05:00,546,38.8967316187,-77.0059959584,,
12/20/13,Union Center Plaza,2013-12-20T15:52:27-05:00,2013-12-20T16:06:07-05:00,820,38.9015038292055,-77.00652122497559,,http://foursquare.com/venue/4bb14f20f964a520538b3ce3
12/20/13,Place in Berkeley County,2013-12-20T17:48:00-05:00,2013-12-20T17:56:25-05:00,505,39.4690896884,-77.9646171709,,
12/20/13,Place in Rockwood Station,2013-12-20T20:56:09-05:00,2013-12-20T21:09:50-05:00,821,39.9136827889,-79.1580155109,,
12/20/13,Place in North Manor,2013-12-20T22:15:50-05:00,2013-12-20T22:18:04-05:00,134,40.0210989938,-79.5941533526,,
12/20/13,Place in Uptown,2013-12-20T23:57:02-05:00,2013-12-21T00:00:00-05:00,178,40.445576427,-79.9905408882,,
