Date,Name,Start,End,Duration,Latitude,Longitude,Category,Link
8/5/14,Laura's Home,2014-08-05T00:00:00-04:00,2014-08-05T09:22:17-04:00,33737,38.9219057145,-77.0772744833,Home,
8/5/14,Apple Store,2014-08-05T09:41:02-04:00,2014-08-05T10:09:53-04:00,1731,38.90590722335151,-77.0626272217989,Electronics Store,http://foursquare.com/venue/4bdb67c03904a59377434a9e
8/5/14,Busboys and Poets,2014-08-05T11:33:01-04:00,2014-08-05T14:02:24-04:00,8963,38.91795996865189,-77.03186315579289,American Restaurant,http://foursquare.com/venue/44196facf964a52026311fe3
8/5/14,Place in Kalorama Triangle,2014-08-05T14:10:34-04:00,2014-08-05T14:17:23-04:00,409,38.917203946,-77.0322658816,,
8/5/14,Busboys and Poets,2014-08-05T14:17:23-04:00,2014-08-05T17:52:48-04:00,12925,38.91795996865189,-77.03186315579289,American Restaurant,http://foursquare.com/venue/44196facf964a52026311fe3
8/5/14,WMATA Bus Stop #1001507 (42),2014-08-05T18:14:30-04:00,2014-08-05T18:22:17-04:00,467,38.91099639765825,-77.04418209160346,Bus Station,http://foursquare.com/venue/4c7a8e21a8683704cfef134d
8/5/14,Laura's Home,2014-08-05T18:43:57-04:00,2014-08-06T00:00:00-04:00,18963,38.9219057145,-77.0772744833,Home,
