Date,Name,Start,End,Duration,Latitude,Longitude,Category,Link
12/20/13,2440 39th Street NW,2013-12-20T00:00:00-06:00,2013-12-20T14:02:25-06:00,50545,38.92592014653639,-77.07371486668141,,http://foursquare.com/venue/520fad54498e47affbce37d4
12/20/13,Place in East End,2013-12-20T14:33:49-06:00,2013-12-20T14:42:55-06:00,546,38.8967316187,-77.0059959584,,
12/20/13,Union Center Plaza,2013-12-20T14:52:27-06:00,2013-12-20T15:06:07-06:00,820,38.9015038292055,-77.00652122497559,,http://foursquare.com/venue/4bb14f20f964a520538b3ce3
12/20/13,Place in Berkeley County,2013-12-20T16:48:00-06:00,2013-12-20T16:56:25-06:00,505,39.4690896884,-77.9646171709,,
12/20/13,Place in Rockwood Station,2013-12-20T19:56:09-06:00,2013-12-20T20:09:50-06:00,821,39.9136827889,-79.1580155109,,
12/20/13,Place in North Manor,2013-12-20T21:15:50-06:00,2013-12-20T21:18:04-06:00,134,40.0210989938,-79.5941533526,,
12/20/13,Place in Uptown,2013-12-20T22:57:02-06:00,2013-12-20T23:12:43-06:00,941,40.445576427,-79.9905408882,,
