Date,Name,Start,End,Duration,Latitude,Longitude,Category,Link
3/27/14,Jess Lin's Home,2014-03-27T00:00:00-04:00,2014-03-27T00:19:50-04:00,1190,40.7336195193,-73.9759907849,Home,
3/27/14,John F. Kennedy International Airport (JFK),2014-03-27T00:58:27-04:00,2014-03-27T06:28:12-04:00,19785,40.64508935597635,-73.7845230102539,Airport,http://foursquare.com/venue/43a52546f964a520532c1fe3
3/27/14,John F. Kennedy International Airport (JFK),2014-03-27T06:33:49-04:00,2014-03-27T07:17:10-04:00,2601,40.64508935597635,-73.7845230102539,Airport,http://foursquare.com/venue/43a52546f964a520532c1fe3
3/27/14,Chicago O'Hare International Airport (ORD),2014-03-27T09:54:27-04:00,2014-03-27T09:59:26-04:00,299,41.97727092004163,-87.90440082550049,Airport,http://foursquare.com/venue/4a5a77a4f964a52062ba1fe3
3/27/14,Fitzsimmons Home,2014-03-27T10:59:39-04:00,2014-03-27T13:20:12-04:00,8433,41.8771070061,-88.311048021,Home,
3/27/14,Egg Harbor Cafe,2014-03-27T13:25:04-04:00,2014-03-27T14:05:02-04:00,2398,41.883009,-88.3081539,Breakfast Spot,http://foursquare.com/venue/4b6d65e3f964a520d3742ce3
3/27/14,Fitzsimmons Home,2014-03-27T14:13:59-04:00,2014-03-28T00:00:00-04:00,35161,41.8771070061,-88.311048021,Home,
