Date,Name,Start,End,Duration,Latitude,Longitude,Category,Link
7/15/14,Laura's Home,2014-07-15T00:00:00-04:00,2014-07-15T09:02:22-04:00,32542,38.9219057145,-77.0772744833,Home,
7/15/14,"WMATA Bus Stop #1001805 (31, 32, 36)",2014-07-15T09:07:39-04:00,2014-07-15T09:17:11-04:00,572,38.92229853987276,-77.07277336996707,Bus Line,http://foursquare.com/venue/4e9b7ac54901d3b0b7587b98
7/15/14,Starbucks,2014-07-15T09:48:48-04:00,2014-07-15T12:24:09-04:00,9321,38.89947134437488,-77.03195312062199,Coffee Shop,http://foursquare.com/venue/4af5b4c8f964a520a6fb21e3
7/15/14,Eat at National Place,2014-07-15T12:37:52-04:00,2014-07-15T12:42:21-04:00,269,38.89736635211879,-77.03016505709523,Food Court,http://foursquare.com/venue/4b607467f964a520f1e629e3
7/15/14,NTN24,2014-07-15T12:55:47-04:00,2014-07-15T14:09:15-04:00,4408,38.901567,-77.032106,Office,http://foursquare.com/venue/4ec5b4b38b81dcfdc16568d3
7/15/14,NTN24,2014-07-15T14:23:06-04:00,2014-07-15T18:51:41-04:00,16115,38.901567,-77.032106,Office,http://foursquare.com/venue/4ec5b4b38b81dcfdc16568d3
7/15/14,Laura's Home,2014-07-15T19:34:55-04:00,2014-07-16T00:00:00-04:00,15905,38.9219057145,-77.0772744833,Home,
