Date,Name,Start,End,Duration,Latitude,Longitude,Category,Link
8/14/14,Home,2014-08-14T00:00:00-05:00,2014-08-14T08:11:04-05:00,29464,42.3754311174,-71.1114458017,Home,
8/14/14,Proximate,2014-08-14T08:21:56-05:00,2014-08-14T08:43:31-05:00,1295,42.378716,-71.117205,Tech Startup,http://foursquare.com/venue/51c8c0d1498e5d4d09a48362
8/14/14,Harvard Alumni Association,2014-08-14T08:56:29-05:00,2014-08-14T10:04:09-05:00,4060,42.37317592010315,-71.12325225275964,University,http://foursquare.com/venue/4b5dc68df964a520026b29e3
8/14/14,MBTA Harvard Station,2014-08-14T10:06:50-05:00,2014-08-14T11:28:19-05:00,4889,42.37331996935519,-71.11896514892578,Subway,http://foursquare.com/venue/4a2715d0f964a52057911fe3
8/14/14,Grendel's Den Restaurant & Bar,2014-08-14T11:33:36-05:00,2014-08-14T12:41:55-05:00,4099,42.37237675230346,-71.12077832221985,Bar,http://foursquare.com/venue/3fd66200f964a520bced1ee3
8/14/14,Home,2014-08-14T13:07:57-05:00,2014-08-14T18:23:15-05:00,18918,42.3754311174,-71.1114458017,Home,
8/14/14,Proximate,2014-08-14T18:39:24-05:00,2014-08-14T18:42:54-05:00,210,42.378716,-71.117205,Tech Startup,http://foursquare.com/venue/51c8c0d1498e5d4d09a48362
8/14/14,Park,2014-08-14T18:56:29-05:00,2014-08-14T20:36:30-05:00,6001,42.37169409933257,-71.12097185013617,Gastropub,http://foursquare.com/venue/4f7c8902e4b032c26c6798db
8/14/14,Home,2014-08-14T20:52:34-05:00,2014-08-15T00:00:00-05:00,11246,42.3754311174,-71.1114458017,Home,
