Date,Name,Start,End,Duration,Latitude,Longitude,Category,Link
5/28/14,Laura's Home,2014-05-28T00:00:00-04:00,2014-05-28T10:53:08-04:00,39188,38.9219057145,-77.0772744833,Home,
5/28/14,Union Station,2014-05-28T11:32:57-04:00,2014-05-28T11:50:20-04:00,1043,38.89756277173564,-77.0061671733856,Train Station,http://foursquare.com/venue/430a6700f964a52036271fe3
5/28/14,Place in East End,2014-05-28T11:52:36-04:00,2014-05-28T12:02:32-04:00,596,38.8995381425,-77.0048675583,,
5/28/14,Place in Powelton,2014-05-28T13:51:00-04:00,2014-05-28T13:55:15-04:00,255,39.956470489,-75.1817895319,,
5/28/14,Home,2014-05-28T20:41:17-04:00,2014-05-29T00:00:00-04:00,11923,42.3754311174,-71.1114458017,Home,
