Date,Name,Start,End,Duration,Latitude,Longitude,Category,Link
12/12/14,Home,2014-12-12T05:42:17-06:00,2014-12-12T06:40:26-06:00,3489,42.3754311174,-71.1114458017,Home,
12/12/14,Aldrich Hall,2014-12-12T07:01:52-06:00,2014-12-12T12:28:22-06:00,19590,42.36578780710847,-71.12210915179602,College Academic Building,http://foursquare.com/venue/4ac64359f964a5206eb320e3
12/12/14,Home,2014-12-12T12:52:30-06:00,2014-12-12T14:02:52-06:00,4222,42.3754311174,-71.1114458017,Home,
12/12/14,New England Aquarium,2014-12-12T14:43:31-06:00,2014-12-12T15:53:09-06:00,4178,42.35914644250845,-71.04946374893188,Aquarium,http://foursquare.com/venue/44cf0e37f964a5201b361fe3
12/12/14,New England Aquarium,2014-12-12T15:53:10-06:00,2014-12-12T16:11:56-06:00,1126,42.35914644250845,-71.04946374893188,Aquarium,http://foursquare.com/venue/44cf0e37f964a5201b361fe3
12/12/14,One Western Avenue,2014-12-12T16:41:58-06:00,2014-12-12T17:53:10-06:00,4272,42.36460253791613,-71.11879588132827,Residential Building (Apartment / Condo),http://foursquare.com/venue/4aca3daaf964a520fcc020e3
12/12/14,Orinoco,2014-12-12T18:11:30-06:00,2014-12-12T19:58:43-06:00,6433,42.37190996862827,-71.12049603929978,Arepa Restaurant,http://foursquare.com/venue/4f106cace4b072565b8bd1b6
12/12/14,Jon Scherr Home,2014-12-12T20:17:09-06:00,2014-12-12T22:15:02-06:00,7073,42.3692976344,-71.1084407079,Home,
12/12/14,Home,2014-12-12T22:44:00-06:00,2014-12-13T00:00:00-06:00,4560,42.3754311174,-71.1114458017,Home,
