Date,Name,Start,End,Duration,Latitude,Longitude,Category,Link
4/9/14,Fitzsimmons Home,2014-04-09T00:00:00-04:00,2014-04-09T11:51:20-04:00,42680,41.8771070061,-88.311048021,Home,
4/9/14,Gate L5,2014-04-09T12:48:25-04:00,2014-04-09T13:32:25-04:00,2640,41.977036,-87.897449,Airport Gate,http://foursquare.com/venue/4c9d09fb8afca09334ecf215
4/9/14,Place in Logan International Airport,2014-04-09T15:44:06-04:00,2014-04-09T15:51:46-04:00,460,42.3648854193,-71.0149319231,,
4/9/14,Place in Logan International Airport,2014-04-09T15:59:03-04:00,2014-04-09T16:06:21-04:00,438,42.3664825597,-71.018968718,,
4/9/14,Home,2014-04-09T17:04:17-04:00,2014-04-09T18:45:35-04:00,6078,42.3754311174,-71.1114458017,Home,
4/9/14,Place in Cambridge,2014-04-09T19:02:20-04:00,2014-04-09T20:21:07-04:00,4727,42.3729819695,-71.0958597028,,
4/9/14,Home,2014-04-09T20:41:06-04:00,2014-04-10T00:00:00-04:00,11934,42.3754311174,-71.1114458017,Home,
