Date,Name,Start,End,Duration,Latitude,Longitude,Category,Link
9/2/14,Home,2014-09-02T00:00:00-05:00,2014-09-02T06:32:32-05:00,23552,42.3754311174,-71.1114458017,Home,
9/2/14,Harvard Innovation Lab,2014-09-02T06:58:49-05:00,2014-09-02T07:55:55-05:00,3426,42.36403242532342,-71.12407621183526,College Technology Building,http://foursquare.com/venue/4e5d4676ae60839ea2e29e64
9/2/14,Aldrich Hall,2014-09-02T08:03:40-05:00,2014-09-02T11:19:52-05:00,11772,42.36578780710847,-71.12210915179602,College Academic Building,http://foursquare.com/venue/4ac64359f964a5206eb320e3
9/2/14,Orinoco,2014-09-02T11:33:45-05:00,2014-09-02T12:13:16-05:00,2371,42.37190996862827,-71.12049603929978,Arepa Restaurant,http://foursquare.com/venue/4f106cace4b072565b8bd1b6
9/2/14,Place in Old Cambridge,2014-09-02T12:21:53-05:00,2014-09-02T12:24:12-05:00,139,42.3711849193,-71.1146043361,,
9/2/14,Home,2014-09-02T12:35:37-05:00,2014-09-02T17:51:15-05:00,18938,42.3754311174,-71.1114458017,Home,
9/2/14,First Printer,2014-09-02T18:08:34-05:00,2014-09-02T19:17:00-05:00,4106,42.37291150229456,-71.11881909172456,Southern / Soul Food Restaurant,http://foursquare.com/venue/4f249887e4b006e5c25df9a2
9/2/14,Orinoco,2014-09-02T19:20:54-05:00,2014-09-02T20:17:32-05:00,3398,42.37190996862827,-71.12049603929978,Arepa Restaurant,http://foursquare.com/venue/4f106cace4b072565b8bd1b6
9/2/14,Home,2014-09-02T20:36:57-05:00,2014-09-03T00:00:00-05:00,12183,42.3754311174,-71.1114458017,Home,
