Date,Name,Start,End,Duration,Latitude,Longitude,Category,Link
4/9/14,Fitzsimmons Home,2014-04-09T00:00:00-05:00,2014-04-09T10:51:20-05:00,39080,41.8771070061,-88.311048021,Home,
4/9/14,Gate L5,2014-04-09T11:48:25-05:00,2014-04-09T12:32:25-05:00,2640,41.977036,-87.897449,Airport Gate,http://foursquare.com/venue/4c9d09fb8afca09334ecf215
4/9/14,Place in Logan International Airport,2014-04-09T14:44:06-05:00,2014-04-09T14:51:46-05:00,460,42.3648854193,-71.0149319231,,
4/9/14,Place in Logan International Airport,2014-04-09T14:59:03-05:00,2014-04-09T15:06:21-05:00,438,42.3664825597,-71.018968718,,
4/9/14,Home,2014-04-09T16:04:17-05:00,2014-04-09T17:45:35-05:00,6078,42.3754311174,-71.1114458017,Home,
4/9/14,Place in Cambridge,2014-04-09T18:02:20-05:00,2014-04-09T19:21:07-05:00,4727,42.3729819695,-71.0958597028,,
4/9/14,Home,2014-04-09T19:41:06-05:00,2014-04-10T00:00:00-05:00,15534,42.3754311174,-71.1114458017,Home,
