Date,Name,Start,End,Duration,Latitude,Longitude,Category,Link
12/27/13,945 S Batavia Ave,2013-12-27T00:00:00-05:00,2013-12-27T14:36:52-05:00,52612,41.87250621617115,-88.30935165928999,,http://foursquare.com/venue/4f629428e4b075c7117d49d3
12/27/13,Nosh,2013-12-27T14:40:10-05:00,2013-12-27T15:24:10-05:00,2640,41.88694340165634,-88.30746173858643,,http://foursquare.com/venue/4b5c8db0f964a5203b3629e3
12/27/13,CVS/pharmacy,2013-12-27T15:28:23-05:00,2013-12-27T15:47:44-05:00,1161,41.88771017105127,-88.29025268554688,,http://foursquare.com/venue/4c214ee69085d13a26a184cc
12/27/13,945 S Batavia Ave,2013-12-27T15:53:10-05:00,2013-12-27T16:53:36-05:00,3626,41.87250621617115,-88.30935165928999,,http://foursquare.com/venue/4f629428e4b075c7117d49d3
12/27/13,Place in Batavia,2013-12-27T17:00:33-05:00,2013-12-27T17:10:29-05:00,596,41.8573026086,-88.3400673248,,
12/27/13,Chicago O'Hare International Airport (ORD),2013-12-27T18:19:21-05:00,2013-12-27T19:42:00-05:00,4959,41.97727092004163,-87.90440082550049,,http://foursquare.com/venue/4a5a77a4f964a52062ba1fe3
12/27/13,Aliano's Ristorante,2013-12-27T20:38:12-05:00,2013-12-27T23:03:17-05:00,8705,41.85094038076139,-88.30867525665128,,http://foursquare.com/venue/4eea9b640aaf9592fea4348c
12/27/13,945 S Batavia Ave,2013-12-27T23:11:25-05:00,2013-12-27T23:16:57-05:00,332,41.87250621617115,-88.30935165928999,,http://foursquare.com/venue/4f629428e4b075c7117d49d3
12/27/13,945 S Batavia Ave,2013-12-27T23:54:47-05:00,2013-12-28T00:00:00-05:00,313,41.87250621617115,-88.30935165928999,,http://foursquare.com/venue/4f629428e4b075c7117d49d3
