Date,Name,Start,End,Duration,Latitude,Longitude,Category,Link
8/5/14,Laura's Home,2014-08-05T00:00:00-05:00,2014-08-05T08:22:17-05:00,30137,38.9219057145,-77.0772744833,Home,
8/5/14,Apple Store,2014-08-05T08:41:02-05:00,2014-08-05T09:09:53-05:00,1731,38.90590722335151,-77.0626272217989,Electronics Store,http://foursquare.com/venue/4bdb67c03904a59377434a9e
8/5/14,Busboys and Poets,2014-08-05T10:33:01-05:00,2014-08-05T13:02:24-05:00,8963,38.91795996865189,-77.03186315579289,American Restaurant,http://foursquare.com/venue/44196facf964a52026311fe3
8/5/14,Place in Kalorama Triangle,2014-08-05T13:10:34-05:00,2014-08-05T13:17:23-05:00,409,38.917203946,-77.0322658816,,
8/5/14,Busboys and Poets,2014-08-05T13:17:23-05:00,2014-08-05T16:52:48-05:00,12925,38.91795996865189,-77.03186315579289,American Restaurant,http://foursquare.com/venue/44196facf964a52026311fe3
8/5/14,WMATA Bus Stop #1001507 (42),2014-08-05T17:14:30-05:00,2014-08-05T17:22:17-05:00,467,38.91099639765825,-77.04418209160346,Bus Station,http://foursquare.com/venue/4c7a8e21a8683704cfef134d
8/5/14,Laura's Home,2014-08-05T17:43:57-05:00,2014-08-06T00:00:00-05:00,22563,38.9219057145,-77.0772744833,Home,
