Date,Name,Start,End,Duration,Latitude,Longitude,Category,Link
7/2/14,Home,2014-07-02T00:00:00-05:00,2014-07-02T09:21:03-05:00,33663,42.3754311174,-71.1114458017,Home,
7/2/14,Matt Ritter Home,2014-07-02T09:44:14-05:00,2014-07-02T10:52:09-05:00,4075,42.3685493959,-71.0949963693,Home,
7/2/14,Home,2014-07-02T11:18:15-05:00,2014-07-02T11:58:39-05:00,2424,42.3754311174,-71.1114458017,Home,
7/2/14,Boston Logan International Airport (BOS),2014-07-02T12:21:51-05:00,2014-07-02T12:33:31-05:00,700,42.36650312404415,-71.01667642593384,Airport,http://foursquare.com/venue/452113b6f964a520bc3a1fe3
7/2/14,Boston Logan International Airport (BOS),2014-07-02T12:36:47-05:00,2014-07-02T15:45:33-05:00,11326,42.36650312404415,-71.01667642593384,Airport,http://foursquare.com/venue/452113b6f964a520bc3a1fe3
7/2/14,Boston Logan International Airport (BOS),2014-07-02T16:46:18-05:00,2014-07-02T19:50:50-05:00,11072,42.36650312404415,-71.01667642593384,Airport,http://foursquare.com/venue/452113b6f964a520bc3a1fe3
7/2/14,Chicago O'Hare International Airport (ORD),2014-07-02T21:49:38-05:00,2014-07-02T21:54:49-05:00,311,41.97727092004163,-87.90440082550049,Airport,http://foursquare.com/venue/4a5a77a4f964a52062ba1fe3
7/2/14,Fitzsimmons Home,2014-07-02T22:56:39-05:00,2014-07-03T00:00:00-05:00,3801,41.8771070061,-88.311048021,Home,
