Date,Name,Start,End,Duration,Latitude,Longitude,Category,Link
9/2/14,Home,2014-09-02T00:00:00-04:00,2014-09-02T07:32:32-04:00,27152,42.3754311174,-71.1114458017,Home,
9/2/14,Harvard Innovation Lab,2014-09-02T07:58:49-04:00,2014-09-02T08:55:55-04:00,3426,42.36403242532342,-71.12407621183526,College Technology Building,http://foursquare.com/venue/4e5d4676ae60839ea2e29e64
9/2/14,Aldrich Hall,2014-09-02T09:03:40-04:00,2014-09-02T12:19:52-04:00,11772,42.36578780710847,-71.12210915179602,College Academic Building,http://foursquare.com/venue/4ac64359f964a5206eb320e3
9/2/14,Orinoco,2014-09-02T12:33:45-04:00,2014-09-02T13:13:16-04:00,2371,42.37190996862827,-71.12049603929978,Arepa Restaurant,http://foursquare.com/venue/4f106cace4b072565b8bd1b6
9/2/14,Place in Old Cambridge,2014-09-02T13:21:53-04:00,2014-09-02T13:24:12-04:00,139,42.3711849193,-71.1146043361,,
9/2/14,Home,2014-09-02T13:35:37-04:00,2014-09-02T18:51:15-04:00,18938,42.3754311174,-71.1114458017,Home,
9/2/14,First Printer,2014-09-02T19:08:34-04:00,2014-09-02T20:17:00-04:00,4106,42.37291150229456,-71.11881909172456,Southern / Soul Food Restaurant,http://foursquare.com/venue/4f249887e4b006e5c25df9a2
9/2/14,Orinoco,2014-09-02T20:20:54-04:00,2014-09-02T21:17:32-04:00,3398,42.37190996862827,-71.12049603929978,Arepa Restaurant,http://foursquare.com/venue/4f106cace4b072565b8bd1b6
9/2/14,Home,2014-09-02T21:36:57-04:00,2014-09-03T00:00:00-04:00,8583,42.3754311174,-71.1114458017,Home,
