Date,Name,Start,End,Duration,Latitude,Longitude,Category,Link
8/14/14,Home,2014-08-14T00:00:00-04:00,2014-08-14T09:11:04-04:00,33064,42.3754311174,-71.1114458017,Home,
8/14/14,Proximate,2014-08-14T09:21:56-04:00,2014-08-14T09:43:31-04:00,1295,42.378716,-71.117205,Tech Startup,http://foursquare.com/venue/51c8c0d1498e5d4d09a48362
8/14/14,Harvard Alumni Association,2014-08-14T09:56:29-04:00,2014-08-14T11:04:09-04:00,4060,42.37317592010315,-71.12325225275964,University,http://foursquare.com/venue/4b5dc68df964a520026b29e3
8/14/14,MBTA Harvard Station,2014-08-14T11:06:50-04:00,2014-08-14T12:28:19-04:00,4889,42.37331996935519,-71.11896514892578,Subway,http://foursquare.com/venue/4a2715d0f964a52057911fe3
8/14/14,Grendel's Den Restaurant & Bar,2014-08-14T12:33:36-04:00,2014-08-14T13:41:55-04:00,4099,42.37237675230346,-71.12077832221985,Bar,http://foursquare.com/venue/3fd66200f964a520bced1ee3
8/14/14,Home,2014-08-14T14:07:57-04:00,2014-08-14T19:23:15-04:00,18918,42.3754311174,-71.1114458017,Home,
8/14/14,Proximate,2014-08-14T19:39:24-04:00,2014-08-14T19:42:54-04:00,210,42.378716,-71.117205,Tech Startup,http://foursquare.com/venue/51c8c0d1498e5d4d09a48362
8/14/14,Park,2014-08-14T19:56:29-04:00,2014-08-14T21:36:30-04:00,6001,42.37169409933257,-71.12097185013617,Gastropub,http://foursquare.com/venue/4f7c8902e4b032c26c6798db
8/14/14,Home,2014-08-14T21:52:34-04:00,2014-08-15T00:00:00-04:00,7646,42.3754311174,-71.1114458017,Home,
