[ {
  "date" : "20141122",
  "segments" : [ {
    "type" : "place",
    "startTime" : "20141121T214915-0600",
    "endTime" : "20141122T094620-0600",
    "place" : {
      "id" : 9869005,
      "name" : "Home",
      "type" : "home",
      "location" : {
        "lat" : 42.3754311174,
        "lon" : -71.1114458017
      }
    },
    "lastUpdate" : "20141122T175159Z"
  }, {
    "type" : "place",
    "startTime" : "20141122T101934-0600",
    "endTime" : "20141122T112205-0600",
    "place" : {
      "id" : 115780014,
      "name" : "Harvard Stadium",
      "type" : "foursquare",
      "foursquareId" : "4a6240d7f964a5208bc31fe3",
      "foursquareCategoryIds" : [ "4bf58dd8d48988d1b4941735" ],
      "location" : {
        "lat" : 42.366997,
        "lon" : -71.12680128
      }
    },
    "lastUpdate" : "20141129T021112Z"
  }, {
    "type" : "place",
    "startTime" : "20141122T112445-0600",
    "endTime" : "20141122T113214-0600",
    "place" : {
      "id" : 114227715,
      "type" : "unknown",
      "location" : {
        "lat" : 42.367892696,
        "lon" : -71.1283936368
      }
    },
    "lastUpdate" : "20141122T192252Z"
  }, {
    "type" : "place",
    "startTime" : "20141122T115616-0600",
    "endTime" : "20141122T145546-0600",
    "place" : {
      "id" : 110582799,
      "name" : "Tasty Burger",
      "type" : "foursquare",
      "foursquareId" : "50ce07b5e4b0ed7c4302d2bc",
      "foursquareCategoryIds" : [ "4bf58dd8d48988d16c941735" ],
      "location" : {
        "lat" : 42.37250286669323,
        "lon" : -71.12003183306106
      }
    },
    "lastUpdate" : "20141123T000057Z"
  }, {
    "type" : "place",
    "startTime" : "20141122T150113-0600",
    "endTime" : "20141122T172830-0600",
    "place" : {
      "id" : 10042715,
      "name" : "Border Cafe",
      "type" : "foursquare",
      "foursquareId" : "3fd66200f964a520bded1ee3",
      "foursquareCategoryIds" : [ "4bf58dd8d48988d1c1941735", "4bf58dd8d48988d17a941735" ],
      "location" : {
        "lat" : 42.3743468,
        "lon" : -71.120141
      }
    },
    "lastUpdate" : "20141123T013352Z"
  }, {
    "type" : "place",
    "startTime" : "20141122T174815-0600",
    "endTime" : "20141122T191413-0600",
    "place" : {
      "id" : 114315482,
      "name" : "11 Peabody Terrace",
      "type" : "foursquare",
      "foursquareId" : "5045207fe4b0c9395976e347",
      "foursquareCategoryIds" : [ "4d954b06a243a5684965b473" ],
      "location" : {
        "lat" : 42.36692807364663,
        "lon" : -71.11492552895656
      }
    },
    "lastUpdate" : "20141129T021156Z"
  }, {
    "type" : "place",
    "startTime" : "20141122T191821-0600",
    "endTime" : "20141122T192141-0600",
    "place" : {
      "id" : 92422030,
      "type" : "unknown",
      "location" : {
        "lat" : 42.3687046575,
        "lon" : -71.1146211906
      }
    },
    "lastUpdate" : "20141123T030529Z"
  }, {
    "type" : "place",
    "startTime" : "20141122T193026-0600",
    "endTime" : "20141122T222638-0600",
    "place" : {
      "id" : 110264566,
      "name" : "Ethan Bernstein Home",
      "type" : "home",
      "location" : {
        "lat" : 42.3717835414,
        "lon" : -71.1130447028
      }
    },
    "lastUpdate" : "20141123T210904Z"
  }, {
    "type" : "place",
    "startTime" : "20141122T223513-0600",
    "endTime" : "20141122T223646-0600",
    "place" : {
      "id" : 114563597,
      "type" : "unknown",
      "location" : {
        "lat" : 42.3748770989,
        "lon" : -71.1115588118
      }
    },
    "lastUpdate" : "20141123T210904Z"
  } ],
  "lastUpdate" : "20141129T021156Z"
} ]