[ {
  "date" : "20140717",
  "segments" : [ {
    "type" : "place",
    "startTime" : "20140716T223444-0400",
    "endTime" : "20140717T091752-0400",
    "place" : {
      "id" : 28892305,
      "name" : "Laura's Home",
      "type" : "home",
      "location" : {
        "lat" : 38.9219057145,
        "lon" : -77.0772744833
      }
    },
    "lastUpdate" : "20140717T154615Z"
  }, {
    "type" : "place",
    "startTime" : "20140717T100106-0400",
    "endTime" : "20140717T100727-0400",
    "place" : {
      "id" : 20153159,
      "name" : "NTN24",
      "type" : "foursquare",
      "foursquareId" : "4ec5b4b38b81dcfdc16568d3",
      "foursquareCategoryIds" : [ "4bf58dd8d48988d124941735" ],
      "location" : {
        "lat" : 38.901567,
        "lon" : -77.032106
      }
    },
    "lastUpdate" : "20140717T154757Z"
  }, {
    "type" : "place",
    "startTime" : "20140717T100958-0400",
    "endTime" : "20140717T122000-0400",
    "place" : {
      "id" : 71548075,
      "name" : "Starbucks",
      "type" : "foursquare",
      "foursquareId" : "4af5b4c8f964a520a6fb21e3",
      "foursquareCategoryIds" : [ "4bf58dd8d48988d1e0931735" ],
      "location" : {
        "lat" : 38.89947134437488,
        "lon" : -77.03195312062199
      }
    },
    "lastUpdate" : "20140717T174344Z"
  }, {
    "type" : "place",
    "startTime" : "20140717T123616-0400",
    "endTime" : "20140717T133341-0400",
    "place" : {
      "id" : 72222200,
      "name" : "Noodles On 11",
      "type" : "foursquare",
      "foursquareId" : "4d26254337a1b60cfd0a9db8",
      "foursquareCategoryIds" : [ "4bf58dd8d48988d1d1941735" ],
      "location" : {
        "lat" : 38.900784,
        "lon" : -77.0268
      }
    },
    "lastUpdate" : "20140717T195040Z"
  }, {
    "type" : "place",
    "startTime" : "20140717T134156-0400",
    "endTime" : "20140717T135118-0400",
    "place" : {
      "id" : 20153159,
      "name" : "NTN24",
      "type" : "foursquare",
      "foursquareId" : "4ec5b4b38b81dcfdc16568d3",
      "foursquareCategoryIds" : [ "4bf58dd8d48988d124941735" ],
      "location" : {
        "lat" : 38.901567,
        "lon" : -77.032106
      }
    },
    "lastUpdate" : "20140717T195015Z"
  }, {
    "type" : "place",
    "startTime" : "20140717T140545-0400",
    "endTime" : "20140717T153807-0400",
    "place" : {
      "id" : 72261912,
      "name" : "Hamilton Crowne Plaza",
      "type" : "foursquare",
      "foursquareId" : "4ad0e522f964a520d9da20e3",
      "foursquareCategoryIds" : [ "4bf58dd8d48988d1fa931735" ],
      "location" : {
        "lat" : 38.9028898270868,
        "lon" : -77.03171253204346
      }
    },
    "lastUpdate" : "20140717T215425Z"
  }, {
    "type" : "place",
    "startTime" : "20140717T154447-0400",
    "endTime" : "20140717T190344-0400",
    "place" : {
      "id" : 71548075,
      "name" : "Starbucks",
      "type" : "foursquare",
      "foursquareId" : "4af5b4c8f964a520a6fb21e3",
      "foursquareCategoryIds" : [ "4bf58dd8d48988d1e0931735" ],
      "location" : {
        "lat" : 38.89947134437488,
        "lon" : -77.03195312062199
      }
    },
    "lastUpdate" : "20140717T233946Z"
  }, {
    "type" : "place",
    "startTime" : "20140717T190959-0400",
    "endTime" : "20140717T191750-0400",
    "place" : {
      "id" : 40093140,
      "name" : "A-1 Wines & Liquors",
      "type" : "foursquare",
      "foursquareId" : "4b7b1b41f964a520b7512fe3",
      "foursquareCategoryIds" : [ "4bf58dd8d48988d186941735" ],
      "location" : {
        "lat" : 38.90220518091243,
        "lon" : -77.03282833099365
      }
    },
    "lastUpdate" : "20140717T233946Z"
  }, {
    "type" : "place",
    "startTime" : "20140717T192151-0400",
    "endTime" : "20140718T004429-0400",
    "place" : {
      "id" : 72319962,
      "name" : "NTN24-Washington, DC",
      "type" : "foursquare",
      "foursquareId" : "4ec5b5509a52756c53a0be9c",
      "foursquareCategoryIds" : [ "4bf58dd8d48988d124941735" ],
      "location" : {
        "lat" : 38.900182458396,
        "lon" : -77.03193625222163
      }
    },
    "lastUpdate" : "20140719T004712Z"
  } ],
  "lastUpdate" : "20140719T004712Z"
} ]