[ {
  "date" : "20141010",
  "segments" : [ {
    "type" : "place",
    "startTime" : "20141009T181356-0400",
    "endTime" : "20141010T074702-0400",
    "place" : {
      "id" : 9869005,
      "name" : "Home",
      "type" : "home",
      "location" : {
        "lat" : 42.3754311174,
        "lon" : -71.1114458017
      }
    },
    "lastUpdate" : "20141010T165354Z"
  }, {
    "type" : "place",
    "startTime" : "20141010T094343-0400",
    "endTime" : "20141010T125331-0400",
    "place" : {
      "id" : 84119446,
      "name" : "Aldrich Hall",
      "type" : "foursquare",
      "foursquareId" : "4ac64359f964a5206eb320e3",
      "foursquareCategoryIds" : [ "4bf58dd8d48988d198941735" ],
      "location" : {
        "lat" : 42.36578780710847,
        "lon" : -71.12210915179602
      }
    },
    "lastUpdate" : "20141010T182551Z"
  }, {
    "type" : "place",
    "startTime" : "20141010T130914-0400",
    "endTime" : "20141010T135925-0400",
    "place" : {
      "id" : 80599491,
      "name" : "Xfund",
      "type" : "foursquare",
      "foursquareId" : "525e96dd11d27846ee214ac8",
      "foursquareCategoryIds" : [ "4bf58dd8d48988d125941735" ],
      "location" : {
        "lat" : 42.37343863629133,
        "lon" : -71.12017109498916
      }
    },
    "lastUpdate" : "20141010T195814Z"
  }, {
    "type" : "place",
    "startTime" : "20141010T141339-0400",
    "endTime" : "20141010T160754-0400",
    "place" : {
      "id" : 9869005,
      "name" : "Home",
      "type" : "home",
      "location" : {
        "lat" : 42.3754311174,
        "lon" : -71.1114458017
      }
    },
    "lastUpdate" : "20141011T020524Z"
  }, {
    "type" : "place",
    "startTime" : "20141010T175122-0400",
    "endTime" : "20141010T180036-0400",
    "place" : {
      "id" : 101980041,
      "type" : "unknown",
      "location" : {
        "lat" : 42.4749823008,
        "lon" : -71.4512941097
      }
    },
    "lastUpdate" : "20141011T020524Z"
  }, {
    "type" : "place",
    "startTime" : "20141010T200309-0400",
    "endTime" : "20141010T200832-0400",
    "place" : {
      "id" : 101980042,
      "type" : "unknown",
      "location" : {
        "lat" : 43.0279144924,
        "lon" : -72.6580544847
      }
    },
    "lastUpdate" : "20141011T020524Z"
  }, {
    "type" : "place",
    "startTime" : "20141010T204806-0400",
    "endTime" : "20141010T224844-0400",
    "place" : {
      "id" : 101997684,
      "name" : "Black Bear Lodge",
      "type" : "foursquare",
      "foursquareId" : "52d9e417498ebee4ada4af37",
      "foursquareCategoryIds" : [ "4bf58dd8d48988d1fa931735" ],
      "location" : {
        "lat" : 43.11454620489516,
        "lon" : -72.9017343356381
      }
    },
    "lastUpdate" : "20141011T222423Z"
  }, {
    "type" : "place",
    "startTime" : "20141010T225618-0400",
    "endTime" : "20141011T005811-0400",
    "place" : {
      "id" : 102016711,
      "name" : "Green Door Pub",
      "type" : "foursquare",
      "foursquareId" : "4b64c2cbf964a5200cce2ae3",
      "foursquareCategoryIds" : [ "4bf58dd8d48988d116941735" ],
      "location" : {
        "lat" : 43.11398538011355,
        "lon" : -72.90660381317139
      }
    },
    "lastUpdate" : "20141011T222409Z"
  } ],
  "lastUpdate" : "20141011T222423Z"
} ]