[ {
  "date" : "20140729",
  "segments" : [ {
    "type" : "place",
    "startTime" : "20140728T201937-0400",
    "endTime" : "20140729T090912-0400",
    "place" : {
      "id" : 28892305,
      "name" : "Laura's Home",
      "type" : "home",
      "location" : {
        "lat" : 38.9219057145,
        "lon" : -77.0772744833
      }
    },
    "lastUpdate" : "20140729T170328Z"
  }, {
    "type" : "place",
    "startTime" : "20140729T095100-0400",
    "endTime" : "20140729T095547-0400",
    "place" : {
      "id" : 72319962,
      "name" : "NTN24-Washington, DC",
      "type" : "foursquare",
      "foursquareId" : "4ec5b5509a52756c53a0be9c",
      "foursquareCategoryIds" : [ "4bf58dd8d48988d124941735" ],
      "location" : {
        "lat" : 38.900182458396,
        "lon" : -77.03193625222163
      }
    },
    "lastUpdate" : "20140729T170328Z"
  }, {
    "type" : "place",
    "startTime" : "20140729T100057-0400",
    "endTime" : "20140729T100316-0400",
    "place" : {
      "id" : 76639156,
      "type" : "unknown",
      "location" : {
        "lat" : 38.899845404,
        "lon" : -77.0261047999
      }
    },
    "lastUpdate" : "20140729T170328Z"
  }, {
    "type" : "place",
    "startTime" : "20140729T100721-0400",
    "endTime" : "20140729T101250-0400",
    "place" : {
      "id" : 76766918,
      "name" : "Starbucks",
      "type" : "foursquare",
      "foursquareId" : "4a71a528f964a52053d91fe3",
      "foursquareCategoryIds" : [ "4bf58dd8d48988d1e0931735" ],
      "location" : {
        "lat" : 38.89977214793306,
        "lon" : -77.02184852770336
      }
    },
    "lastUpdate" : "20140730T014321Z"
  }, {
    "type" : "place",
    "startTime" : "20140729T101602-0400",
    "endTime" : "20140729T101951-0400",
    "place" : {
      "id" : 76639157,
      "type" : "unknown",
      "location" : {
        "lat" : 38.897270792,
        "lon" : -77.0209184368
      }
    },
    "lastUpdate" : "20140729T170328Z"
  }, {
    "type" : "place",
    "startTime" : "20140729T102825-0400",
    "endTime" : "20140729T130047-0400",
    "place" : {
      "id" : 76639158,
      "name" : "Red Apron Butchery",
      "type" : "foursquare",
      "foursquareId" : "530a551a498e841db25e23e8",
      "foursquareCategoryIds" : [ "4bf58dd8d48988d146941735" ],
      "location" : {
        "lat" : 38.89489364624023,
        "lon" : -77.02249908447266
      }
    },
    "lastUpdate" : "20140730T014329Z"
  }, {
    "type" : "place",
    "startTime" : "20140729T130704-0400",
    "endTime" : "20140729T135639-0400",
    "place" : {
      "id" : 76768373,
      "name" : "Proof",
      "type" : "foursquare",
      "foursquareId" : "4a23b274f964a520da7d1fe3",
      "foursquareCategoryIds" : [ "4bf58dd8d48988d123941735" ],
      "location" : {
        "lat" : 38.89848463109136,
        "lon" : -77.02272013127755
      }
    },
    "lastUpdate" : "20140730T015204Z"
  }, {
    "type" : "place",
    "startTime" : "20140729T141152-0400",
    "endTime" : "20140729T142511-0400",
    "place" : {
      "id" : 72319962,
      "name" : "NTN24-Washington, DC",
      "type" : "foursquare",
      "foursquareId" : "4ec5b5509a52756c53a0be9c",
      "foursquareCategoryIds" : [ "4bf58dd8d48988d124941735" ],
      "location" : {
        "lat" : 38.900182458396,
        "lon" : -77.03193625222163
      }
    },
    "lastUpdate" : "20140729T231958Z"
  }, {
    "type" : "place",
    "startTime" : "20140729T143000-0400",
    "endTime" : "20140729T180404-0400",
    "place" : {
      "id" : 71548075,
      "name" : "Starbucks",
      "type" : "foursquare",
      "foursquareId" : "4af5b4c8f964a520a6fb21e3",
      "foursquareCategoryIds" : [ "4bf58dd8d48988d1e0931735" ],
      "location" : {
        "lat" : 38.89947134437488,
        "lon" : -77.03195312062199
      }
    },
    "lastUpdate" : "20140729T232003Z"
  }, {
    "type" : "place",
    "startTime" : "20140729T180742-0400",
    "endTime" : "20140729T202532-0400",
    "place" : {
      "id" : 76397737,
      "name" : "Le Bar @ Sofitel DC",
      "type" : "foursquare",
      "foursquareId" : "4b761135f964a5206d3a2ee3",
      "foursquareCategoryIds" : [ "4bf58dd8d48988d116941735" ],
      "location" : {
        "lat" : 38.90027258571429,
        "lon" : -77.033628
      }
    },
    "lastUpdate" : "20140730T014246Z"
  }, {
    "type" : "place",
    "startTime" : "20140729T210610-0400",
    "endTime" : "20140730T091206-0400",
    "place" : {
      "id" : 28892305,
      "name" : "Laura's Home",
      "type" : "home",
      "location" : {
        "lat" : 38.9219057145,
        "lon" : -77.0772744833
      }
    },
    "lastUpdate" : "20140730T145836Z"
  } ],
  "lastUpdate" : "20140730T145836Z"
} ]