[ {
  "date" : "20140311",
  "segments" : [ {
    "type" : "place",
    "startTime" : "20140310T185959-0500",
    "endTime" : "20140311T074126-0500",
    "place" : {
      "id" : 9869005,
      "name" : "Home",
      "type" : "home",
      "location" : {
        "lat" : 42.3754311174,
        "lon" : -71.1114458017
      }
    },
    "lastUpdate" : "20140807T114103Z"
  }, {
    "type" : "place",
    "startTime" : "20140311T074401-0500",
    "endTime" : "20140311T074625-0500",
    "place" : {
      "id" : 9869004,
      "name" : "Broadway Marketplace",
      "type" : "foursquare",
      "foursquareId" : "4a661612f964a520ffc71fe3",
      "foursquareCategoryIds" : [ "4bf58dd8d48988d118951735", "4bf58dd8d48988d1f5941735" ],
      "location" : {
        "lat" : 42.37405171427381,
        "lon" : -71.11300484548056
      }
    },
    "lastUpdate" : "20140917T023809Z"
  }, {
    "type" : "place",
    "startTime" : "20140311T075438-0500",
    "endTime" : "20140311T101008-0500",
    "place" : {
      "id" : 10115358,
      "name" : "Experiment Fund",
      "type" : "work",
      "location" : {
        "lat" : 42.37313766800413,
        "lon" : -71.11951231956482
      }
    },
    "lastUpdate" : "20140809T140938Z"
  }, {
    "type" : "place",
    "startTime" : "20140311T102045-0500",
    "endTime" : "20140311T163705-0500",
    "place" : {
      "id" : 10149993,
      "name" : "Proximate",
      "type" : "foursquare",
      "foursquareId" : "51c8c0d1498e5d4d09a48362",
      "foursquareCategoryIds" : [ "4bf58dd8d48988d125941735" ],
      "location" : {
        "lat" : 42.378716,
        "lon" : -71.117205
      }
    },
    "lastUpdate" : "20140813T203053Z"
  }, {
    "type" : "place",
    "startTime" : "20140311T164905-0500",
    "endTime" : "20140311T175954-0500",
    "place" : {
      "id" : 22029405,
      "name" : "Park",
      "type" : "foursquare",
      "foursquareId" : "4f7c8902e4b032c26c6798db",
      "foursquareCategoryIds" : [ "4bf58dd8d48988d155941735" ],
      "location" : {
        "lat" : 42.37169409933257,
        "lon" : -71.12097185013617
      }
    },
    "lastUpdate" : "20141129T021321Z"
  }, {
    "type" : "place",
    "startTime" : "20140311T181730-0500",
    "endTime" : "20140312T130750-0500",
    "place" : {
      "id" : 9869005,
      "name" : "Home",
      "type" : "home",
      "location" : {
        "lat" : 42.3754311174,
        "lon" : -71.1114458017
      }
    },
    "lastUpdate" : "20140807T114103Z"
  } ],
  "lastUpdate" : "20141129T021321Z"
} ]