[ {
  "date" : "20131231",
  "segments" : [ {
    "type" : "place",
    "startTime" : "20131230T143457-0500",
    "endTime" : "20131231T115649-0500",
    "place" : {
      "id" : 14171773,
      "name" : "999 S Batavia Ave",
      "type" : "home",
      "location" : {
        "lat" : 41.8771046037,
        "lon" : -88.3111773419
      }
    },
    "lastUpdate" : "20131231T182826Z"
  }, {
    "type" : "place",
    "startTime" : "20131231T122723-0500",
    "endTime" : "20131231T135751-0500",
    "place" : {
      "id" : 16478374,
      "name" : "Next Generation Development",
      "type" : "foursquare",
      "foursquareId" : "4e17783cb61c015d46f3c5bb",
      "location" : {
        "lat" : 41.844666,
        "lon" : -88.092306
      }
    },
    "lastUpdate" : "20140101T173047Z"
  }, {
    "type" : "place",
    "startTime" : "20131231T141730-0500",
    "endTime" : "20131231T144354-0500",
    "place" : {
      "id" : 16509975,
      "name" : "Chipotle Mexican Grill",
      "type" : "foursquare",
      "foursquareId" : "4fba9029e4b0c8c40865982c",
      "location" : {
        "lat" : 41.81374059115461,
        "lon" : -88.28019508179067
      }
    },
    "lastUpdate" : "20140101T173056Z"
  }, {
    "type" : "place",
    "startTime" : "20131231T145234-0500",
    "endTime" : "20131231T151030-0500",
    "place" : {
      "id" : 16684169,
      "name" : "Lacoste Outlet",
      "type" : "foursquare",
      "foursquareId" : "4be89f6ed837c9b6a995a506",
      "location" : {
        "lat" : 41.80087903210323,
        "lon" : -88.27471733093262
      }
    },
    "lastUpdate" : "20140101T173110Z"
  }, {
    "type" : "place",
    "startTime" : "20131231T151757-0500",
    "endTime" : "20131231T155402-0500",
    "place" : {
      "id" : 16509977,
      "name" : "Coach Mens Factory",
      "type" : "foursquare",
      "foursquareId" : "4fa6c6b6e4b08e1f89d5f3ee",
      "location" : {
        "lat" : 41.80091858051146,
        "lon" : -88.27449015646917
      }
    },
    "lastUpdate" : "20140101T173124Z"
  }, {
    "type" : "place",
    "startTime" : "20131231T162217-0500",
    "endTime" : "20131231T165215-0500",
    "place" : {
      "id" : 16526171,
      "name" : "Aldi",
      "type" : "foursquare",
      "foursquareId" : "4b83142bf964a52049f630e3",
      "location" : {
        "lat" : 41.8880886238829,
        "lon" : -88.2883782767128
      }
    },
    "lastUpdate" : "20140101T173142Z"
  }, {
    "type" : "place",
    "startTime" : "20131231T165804-0500",
    "endTime" : "20131231T185145-0500",
    "place" : {
      "id" : 16684243,
      "name" : "945 S Batavia Ave",
      "type" : "foursquare",
      "foursquareId" : "4f629428e4b075c7117d49d3",
      "location" : {
        "lat" : 41.87250621617115,
        "lon" : -88.30935165928999
      }
    },
    "lastUpdate" : "20140101T173150Z"
  }, {
    "type" : "place",
    "startTime" : "20131231T190802-0500",
    "endTime" : "20131231T225441-0500",
    "place" : {
      "id" : 16684300,
      "name" : "McKanna Home",
      "type" : "foursquare",
      "foursquareId" : "5291522b11d2bcc697a9a9c8",
      "location" : {
        "lat" : 41.82354161276872,
        "lon" : -88.35793010648455
      }
    },
    "lastUpdate" : "20140101T173218Z"
  } ],
  "lastUpdate" : "20140101T173218Z"
} ]