[ {
  "date" : "20141206",
  "segments" : [ {
    "type" : "place",
    "startTime" : "20141205T180629-0600",
    "endTime" : "20141206T002954-0600",
    "place" : {
      "id" : 117438505,
      "name" : "The Westin Copley Place",
      "type" : "foursquare",
      "foursquareId" : "4a772824f964a520c0e31fe3",
      "foursquareCategoryIds" : [ "4bf58dd8d48988d1fa931735" ],
      "location" : {
        "lat" : 42.34854988054275,
        "lon" : -71.077401638031
      }
    },
    "lastUpdate" : "20141206T081726Z"
  }, {
    "type" : "place",
    "startTime" : "20141206T004552-0600",
    "endTime" : "20141206T104011-0600",
    "place" : {
      "id" : 9869005,
      "name" : "Home",
      "type" : "home",
      "location" : {
        "lat" : 42.3754311174,
        "lon" : -71.1114458017
      }
    },
    "lastUpdate" : "20141206T173718Z"
  }, {
    "type" : "place",
    "startTime" : "20141206T104349-0600",
    "endTime" : "20141206T120631-0600",
    "place" : {
      "id" : 10293866,
      "name" : "Darwin's Ltd.",
      "type" : "foursquare",
      "foursquareId" : "4a1c900cf964a520507b1fe3",
      "foursquareCategoryIds" : [ "4bf58dd8d48988d1c5941735", "4bf58dd8d48988d143941735" ],
      "location" : {
        "lat" : 42.37488104,
        "lon" : -71.109389
      }
    },
    "lastUpdate" : "20141206T221753Z"
  }, {
    "type" : "place",
    "startTime" : "20141206T123214-0600",
    "endTime" : "20141206T123543-0600",
    "place" : {
      "id" : 117422920,
      "name" : "Keezer's",
      "type" : "foursquare",
      "foursquareId" : "4b92a900f964a520c00e34e3",
      "foursquareCategoryIds" : [ "4bf58dd8d48988d103951735" ],
      "location" : {
        "lat" : 42.36377617877598,
        "lon" : -71.10901415348053
      }
    },
    "lastUpdate" : "20141206T221753Z"
  }, {
    "type" : "place",
    "startTime" : "20141206T125618-0600",
    "endTime" : "20141206T233829-0600",
    "place" : {
      "id" : 99453957,
      "name" : "Aldrich Hall",
      "type" : "foursquare",
      "foursquareId" : "4ac64359f964a5206eb320e3",
      "foursquareCategoryIds" : [ "4bf58dd8d48988d198941735" ],
      "location" : {
        "lat" : 42.36578780710847,
        "lon" : -71.12210915179602
      }
    },
    "lastUpdate" : "20141207T075159Z"
  } ],
  "lastUpdate" : "20141207T075159Z"
} ]