[ {
  "date" : "20140411",
  "segments" : [ {
    "type" : "place",
    "startTime" : "20140410T190343-0400",
    "endTime" : "20140411T100129-0400",
    "place" : {
      "id" : 9869005,
      "name" : "Home",
      "type" : "home",
      "location" : {
        "lat" : 42.3754311174,
        "lon" : -71.1114458017
      }
    },
    "lastUpdate" : "20140411T170813Z"
  }, {
    "type" : "place",
    "startTime" : "20140411T102435-0400",
    "endTime" : "20140411T115019-0400",
    "place" : {
      "id" : 38325272,
      "name" : "Flybridge Capital",
      "type" : "foursquare",
      "foursquareId" : "4b282b6cf964a5202d9024e3",
      "foursquareCategoryIds" : [ "4bf58dd8d48988d124941735" ],
      "location" : {
        "lat" : 42.35041149056912,
        "lon" : -71.07440355241107
      }
    },
    "lastUpdate" : "20140412T023440Z"
  }, {
    "type" : "place",
    "startTime" : "20140411T120337-0400",
    "endTime" : "20140411T125907-0400",
    "place" : {
      "id" : 11663980,
      "name" : "Shaw's",
      "type" : "foursquare",
      "foursquareId" : "4aac2d1cf964a520ac5c20e3",
      "foursquareCategoryIds" : [ "52f2ab2ebcbc57f1066b8b46", "4bf58dd8d48988d118951735" ],
      "location" : {
        "lat" : 42.347009,
        "lon" : -71.079717
      }
    },
    "lastUpdate" : "20140412T023425Z"
  }, {
    "type" : "place",
    "startTime" : "20140411T130850-0400",
    "endTime" : "20140411T132045-0400",
    "place" : {
      "id" : 38373741,
      "name" : "Back Bay Station (BBY)",
      "type" : "foursquare",
      "foursquareId" : "49ff6be8f964a52020701fe3",
      "foursquareCategoryIds" : [ "4bf58dd8d48988d1fd931735" ],
      "location" : {
        "lat" : 42.34747545670305,
        "lon" : -71.07497692108154
      }
    },
    "lastUpdate" : "20140412T023501Z"
  }, {
    "type" : "place",
    "startTime" : "20140411T165152-0400",
    "endTime" : "20140411T170448-0400",
    "place" : {
      "id" : 38401789,
      "type" : "unknown",
      "location" : {
        "lat" : 40.7522053258,
        "lon" : -73.9984220304
      }
    },
    "lastUpdate" : "20140412T012722Z"
  }, {
    "type" : "place",
    "startTime" : "20140411T194926-0400",
    "endTime" : "20140411T200637-0400",
    "place" : {
      "id" : 38446942,
      "name" : "Union Station",
      "type" : "foursquare",
      "foursquareId" : "430a6700f964a52036271fe3",
      "foursquareCategoryIds" : [ "4bf58dd8d48988d129951735" ],
      "location" : {
        "lat" : 38.89756277173564,
        "lon" : -77.0061671733856
      }
    },
    "lastUpdate" : "20140412T023716Z"
  }, {
    "type" : "place",
    "startTime" : "20140411T203505-0400",
    "endTime" : "20140412T150215-0400",
    "place" : {
      "id" : 28892305,
      "name" : "Laura's Home",
      "type" : "home",
      "location" : {
        "lat" : 38.9219057145,
        "lon" : -77.0772744833
      }
    },
    "lastUpdate" : "20140412T212551Z"
  } ],
  "lastUpdate" : "20140412T212551Z"
} ]