[ {
  "date" : "20141201",
  "segments" : [ {
    "type" : "place",
    "startTime" : "20141130T192929-0600",
    "endTime" : "20141201T062655-0600",
    "place" : {
      "id" : 9869005,
      "name" : "Home",
      "type" : "home",
      "location" : {
        "lat" : 42.3754311174,
        "lon" : -71.1114458017
      }
    },
    "lastUpdate" : "20141201T162852Z"
  }, {
    "type" : "place",
    "startTime" : "20141201T064819-0600",
    "endTime" : "20141201T075514-0600",
    "place" : {
      "id" : 114920853,
      "type" : "unknown",
      "location" : {
        "lat" : 42.3648127837,
        "lon" : -71.1226927852
      }
    },
    "lastUpdate" : "20141201T162852Z"
  }, {
    "type" : "place",
    "startTime" : "20141201T080303-0600",
    "endTime" : "20141201T141912-0600",
    "place" : {
      "id" : 99453957,
      "name" : "Aldrich Hall",
      "type" : "foursquare",
      "foursquareId" : "4ac64359f964a5206eb320e3",
      "foursquareCategoryIds" : [ "4bf58dd8d48988d198941735" ],
      "location" : {
        "lat" : 42.36578780710847,
        "lon" : -71.12210915179602
      }
    },
    "lastUpdate" : "20141201T210708Z"
  }, {
    "type" : "place",
    "startTime" : "20141201T142754-0600",
    "endTime" : "20141201T150118-0600",
    "place" : {
      "id" : 11237847,
      "name" : "Harvard Innovation Lab",
      "type" : "foursquare",
      "foursquareId" : "4e5d4676ae60839ea2e29e64",
      "foursquareCategoryIds" : [ "4bf58dd8d48988d19f941735" ],
      "location" : {
        "lat" : 42.36403242532342,
        "lon" : -71.12407621183526
      }
    },
    "lastUpdate" : "20141201T223733Z"
  }, {
    "type" : "place",
    "startTime" : "20141201T151235-0600",
    "endTime" : "20141201T155950-0600",
    "place" : {
      "id" : 10115332,
      "name" : "Spangler Center",
      "type" : "foursquare",
      "foursquareId" : "4aeee0b0f964a52081d421e3",
      "foursquareCategoryIds" : [ "4bf58dd8d48988d1ab941735" ],
      "location" : {
        "lat" : 42.36522543920124,
        "lon" : -71.12218458495514
      }
    },
    "lastUpdate" : "20141201T223734Z"
  }, {
    "type" : "place",
    "startTime" : "20141201T160304-0600",
    "endTime" : "20141201T165947-0600",
    "place" : {
      "id" : 103497933,
      "name" : "Batten Hall",
      "type" : "foursquare",
      "foursquareId" : "4f8c1d88e4b002b90db5dda7",
      "foursquareCategoryIds" : [ "4bf58dd8d48988d198941735" ],
      "location" : {
        "lat" : 42.3640615623146,
        "lon" : -71.12383604049683
      }
    },
    "lastUpdate" : "20141202T000817Z"
  }, {
    "type" : "place",
    "startTime" : "20141201T172807-0600",
    "endTime" : "20141201T182849-0600",
    "place" : {
      "id" : 9869005,
      "name" : "Home",
      "type" : "home",
      "location" : {
        "lat" : 42.3754311174,
        "lon" : -71.1114458017
      }
    },
    "lastUpdate" : "20141202T032231Z"
  }, {
    "type" : "place",
    "startTime" : "20141201T183835-0600",
    "endTime" : "20141201T233248-0600",
    "place" : {
      "id" : 9869005,
      "name" : "Home",
      "type" : "home",
      "location" : {
        "lat" : 42.3754311174,
        "lon" : -71.1114458017
      }
    },
    "lastUpdate" : "20141202T220608Z"
  } ],
  "lastUpdate" : "20141202T220608Z"
} ]