[ {
  "date" : "20140625",
  "segments" : [ {
    "type" : "place",
    "startTime" : "20140624T230219-0400",
    "endTime" : "20140625T095755-0400",
    "place" : {
      "id" : 63608568,
      "name" : "Hotel Caribe",
      "type" : "foursquare",
      "foursquareId" : "4c5bf64c2815c92804a3b067",
      "foursquareCategoryIds" : [ "4bf58dd8d48988d1fa931735" ],
      "location" : {
        "lat" : 10.39778326142664,
        "lon" : -75.56099212456311
      }
    },
    "lastUpdate" : "20140627T125430Z"
  }, {
    "type" : "place",
    "startTime" : "20140625T101610-0400",
    "endTime" : "20140625T134905-0400",
    "place" : {
      "id" : 63608568,
      "name" : "Hotel Caribe",
      "type" : "foursquare",
      "foursquareId" : "4c5bf64c2815c92804a3b067",
      "foursquareCategoryIds" : [ "4bf58dd8d48988d1fa931735" ],
      "location" : {
        "lat" : 10.39778326142664,
        "lon" : -75.56099212456311
      }
    },
    "lastUpdate" : "20140627T125430Z"
  }, {
    "type" : "place",
    "startTime" : "20140625T135436-0400",
    "endTime" : "20140625T141025-0400",
    "place" : {
      "id" : 63608568,
      "name" : "Hotel Caribe",
      "type" : "foursquare",
      "foursquareId" : "4c5bf64c2815c92804a3b067",
      "foursquareCategoryIds" : [ "4bf58dd8d48988d1fa931735" ],
      "location" : {
        "lat" : 10.39778326142664,
        "lon" : -75.56099212456311
      }
    },
    "lastUpdate" : "20140627T125430Z"
  }, {
    "type" : "place",
    "startTime" : "20140625T141550-0400",
    "endTime" : "20140625T150650-0400",
    "place" : {
      "id" : 64826172,
      "name" : "Pablo Botero's Home",
      "type" : "home",
      "location" : {
        "lat" : 10.3921075844,
        "lon" : -75.547914307
      }
    },
    "lastUpdate" : "20140627T125437Z"
  }, {
    "type" : "place",
    "startTime" : "20140625T152714-0400",
    "endTime" : "20140625T154417-0400",
    "place" : {
      "id" : 64590345,
      "name" : "Plaza De Bolívar",
      "type" : "foursquare",
      "foursquareId" : "4dd05b6db0fb25f6e3737b6c",
      "foursquareCategoryIds" : [ "4bf58dd8d48988d163941735" ],
      "location" : {
        "lat" : 10.42328740119359,
        "lon" : -75.55115062356874
      }
    },
    "lastUpdate" : "20140627T133145Z"
  }, {
    "type" : "place",
    "startTime" : "20140625T154417-0400",
    "endTime" : "20140625T155204-0400",
    "place" : {
      "id" : 64590346,
      "name" : "Plaza San Pedro Claver",
      "type" : "foursquare",
      "foursquareId" : "4d7bd22e5a396dcb60bf67fb",
      "foursquareCategoryIds" : [ "4bf58dd8d48988d164941735" ],
      "location" : {
        "lat" : 10.42186448301561,
        "lon" : -75.5508492847921
      }
    },
    "lastUpdate" : "20140627T133210Z"
  }, {
    "type" : "place",
    "startTime" : "20140625T160122-0400",
    "endTime" : "20140625T161510-0400",
    "place" : {
      "id" : 65494080,
      "name" : "Centro Histórico de Cartagena / Ciudad Amurallada",
      "type" : "foursquare",
      "foursquareId" : "4ff236cae4b0afc114e91a8a",
      "foursquareCategoryIds" : [ "4deefb944765f83613cdba6e" ],
      "location" : {
        "lat" : 10.42242741932198,
        "lon" : -75.55099142580087
      }
    },
    "lastUpdate" : "20140628T141141Z"
  }, {
    "type" : "place",
    "startTime" : "20140625T165725-0400",
    "endTime" : "20140625T175213-0400",
    "place" : {
      "id" : 65092695,
      "name" : "Plaza Santo Domingo",
      "type" : "foursquare",
      "foursquareId" : "4c2528c3a852c9287362e46c",
      "foursquareCategoryIds" : [ "4bf58dd8d48988d164941735" ],
      "location" : {
        "lat" : 10.42423576652723,
        "lon" : -75.55199778024097
      }
    },
    "lastUpdate" : "20140627T133336Z"
  }, {
    "type" : "place",
    "startTime" : "20140625T175237-0400",
    "endTime" : "20140625T200200-0400",
    "place" : {
      "id" : 64620762,
      "name" : "Hotel Movich",
      "type" : "foursquare",
      "foursquareId" : "519b057c498e01ed9b2a752c",
      "foursquareCategoryIds" : [ "4bf58dd8d48988d1fa931735" ],
      "location" : {
        "lat" : 10.42301811816377,
        "lon" : -75.55046266055808
      }
    },
    "lastUpdate" : "20140627T133357Z"
  }, {
    "type" : "place",
    "startTime" : "20140625T200608-0400",
    "endTime" : "20140625T222733-0400",
    "place" : {
      "id" : 64620763,
      "name" : "Velez Home",
      "type" : "home",
      "location" : {
        "lat" : 10.4235400182,
        "lon" : -75.5530215273
      }
    },
    "lastUpdate" : "20140627T133448Z"
  }, {
    "type" : "place",
    "startTime" : "20140625T224728-0400",
    "endTime" : "20140625T234902-0400",
    "place" : {
      "id" : 64620780,
      "name" : "Hotel Charleston Santa Teresa Cartagena de Indias",
      "type" : "foursquare",
      "foursquareId" : "4bc8b35dc1c6eee1eed8fd92",
      "foursquareCategoryIds" : [ "4bf58dd8d48988d1fa931735" ],
      "location" : {
        "lat" : 10.4221646388655,
        "lon" : -75.55257771020209
      }
    },
    "lastUpdate" : "20140627T133738Z"
  } ],
  "lastUpdate" : "20140628T141141Z"
} ]