[ {
  "date" : "20140710",
  "segments" : [ {
    "type" : "place",
    "startTime" : "20140709T182757-0400",
    "endTime" : "20140710T092944-0400",
    "place" : {
      "id" : 9869005,
      "name" : "Home",
      "type" : "home",
      "location" : {
        "lat" : 42.3754311174,
        "lon" : -71.1114458017
      }
    },
    "lastUpdate" : "20140807T114103Z"
  }, {
    "type" : "place",
    "startTime" : "20140710T095812-0400",
    "endTime" : "20140710T100841-0400",
    "place" : {
      "id" : 10149905,
      "name" : "Boston Logan International Airport (BOS)",
      "type" : "foursquare",
      "foursquareId" : "452113b6f964a520bc3a1fe3",
      "foursquareCategoryIds" : [ "4bf58dd8d48988d1ed931735" ],
      "location" : {
        "lat" : 42.36650312404415,
        "lon" : -71.01667642593384
      }
    },
    "lastUpdate" : "20141003T175744Z"
  }, {
    "type" : "place",
    "startTime" : "20140710T101324-0400",
    "endTime" : "20140710T105958-0400",
    "place" : {
      "id" : 69694458,
      "name" : "Gate C29",
      "type" : "foursquare",
      "foursquareId" : "4bc635c4f360ef3bd055db2d",
      "foursquareCategoryIds" : [ "4bf58dd8d48988d1f0931735" ],
      "location" : {
        "lat" : 42.36546531336081,
        "lon" : -71.0145628452301
      }
    },
    "lastUpdate" : "20140710T193637Z"
  }, {
    "type" : "place",
    "startTime" : "20140710T122207-0400",
    "endTime" : "20140710T122501-0400",
    "place" : {
      "id" : 69989886,
      "name" : "Terminal A",
      "type" : "foursquare",
      "foursquareId" : "4bae6416f964a5201eac3be3",
      "foursquareCategoryIds" : [ "4bf58dd8d48988d1eb931735" ],
      "location" : {
        "lat" : 38.84858190547411,
        "lon" : -77.04231262207031
      }
    },
    "lastUpdate" : "20140711T122907Z"
  }, {
    "type" : "place",
    "startTime" : "20140710T122935-0400",
    "endTime" : "20140710T123556-0400",
    "place" : {
      "id" : 69989726,
      "name" : "Ronald Reagan Washington National Airport (DCA)",
      "type" : "foursquare",
      "foursquareId" : "44d17cecf964a5202b361fe3",
      "foursquareCategoryIds" : [ "4bf58dd8d48988d1ed931735" ],
      "location" : {
        "lat" : 38.85304370184257,
        "lon" : -77.04231262207031
      }
    },
    "lastUpdate" : "20140711T122836Z"
  }, {
    "type" : "place",
    "startTime" : "20140710T124547-0400",
    "endTime" : "20140710T130448-0400",
    "place" : {
      "id" : 20153159,
      "name" : "NTN24",
      "type" : "foursquare",
      "foursquareId" : "4ec5b4b38b81dcfdc16568d3",
      "foursquareCategoryIds" : [ "4bf58dd8d48988d124941735" ],
      "location" : {
        "lat" : 38.901567,
        "lon" : -77.032106
      }
    },
    "lastUpdate" : "20140711T122921Z"
  }, {
    "type" : "place",
    "startTime" : "20140710T130909-0400",
    "endTime" : "20140710T134836-0400",
    "place" : {
      "id" : 69780502,
      "name" : "Potbelly Sandwich Shop",
      "type" : "foursquare",
      "foursquareId" : "4defa74f183822e7cf3e316c",
      "foursquareCategoryIds" : [ "4bf58dd8d48988d1c5941735" ],
      "location" : {
        "lat" : 38.90248985340445,
        "lon" : -77.03437090034225
      }
    },
    "lastUpdate" : "20140711T122814Z"
  }, {
    "type" : "place",
    "startTime" : "20140710T135838-0400",
    "endTime" : "20140710T181913-0400",
    "place" : {
      "id" : 20153159,
      "name" : "NTN24",
      "type" : "foursquare",
      "foursquareId" : "4ec5b4b38b81dcfdc16568d3",
      "foursquareCategoryIds" : [ "4bf58dd8d48988d124941735" ],
      "location" : {
        "lat" : 38.901567,
        "lon" : -77.032106
      }
    },
    "lastUpdate" : "20140717T154757Z"
  }, {
    "type" : "place",
    "startTime" : "20140710T183422-0400",
    "endTime" : "20140711T000657-0400",
    "place" : {
      "id" : 20153159,
      "name" : "NTN24",
      "type" : "foursquare",
      "foursquareId" : "4ec5b4b38b81dcfdc16568d3",
      "foursquareCategoryIds" : [ "4bf58dd8d48988d124941735" ],
      "location" : {
        "lat" : 38.901567,
        "lon" : -77.032106
      }
    },
    "lastUpdate" : "20140717T154757Z"
  } ],
  "lastUpdate" : "20141003T175744Z"
} ]