[ {
  "date" : "20140813",
  "segments" : [ {
    "type" : "place",
    "startTime" : "20140812T180124-0500",
    "endTime" : "20140813T091600-0500",
    "place" : {
      "id" : 9869005,
      "name" : "Home",
      "type" : "home",
      "location" : {
        "lat" : 42.3754311174,
        "lon" : -71.1114458017
      }
    },
    "lastUpdate" : "20140813T151708Z"
  }, {
    "type" : "place",
    "startTime" : "20140813T092649-0500",
    "endTime" : "20140813T112508-0500",
    "place" : {
      "id" : 10149993,
      "name" : "Proximate",
      "type" : "foursquare",
      "foursquareId" : "51c8c0d1498e5d4d09a48362",
      "foursquareCategoryIds" : [ "4bf58dd8d48988d125941735" ],
      "location" : {
        "lat" : 42.378716,
        "lon" : -71.117205
      }
    },
    "lastUpdate" : "20140813T203053Z"
  }, {
    "type" : "place",
    "startTime" : "20140813T113627-0500",
    "endTime" : "20140813T124039-0500",
    "place" : {
      "id" : 29541307,
      "name" : "Boston Marriott Cambridge",
      "type" : "foursquare",
      "foursquareId" : "4a66a899f964a520cbc81fe3",
      "foursquareCategoryIds" : [ "4bf58dd8d48988d1fa931735" ],
      "location" : {
        "lat" : 42.36253950179547,
        "lon" : -71.08609199523926
      }
    },
    "lastUpdate" : "20140813T181857Z"
  }, {
    "type" : "place",
    "startTime" : "20140813T124855-0500",
    "endTime" : "20140813T132952-0500",
    "place" : {
      "id" : 29541187,
      "name" : "101 Main St  (CIC)",
      "type" : "foursquare",
      "foursquareId" : "51311256e4b0a7dd5b86d01b",
      "foursquareCategoryIds" : [ "4bf58dd8d48988d174941735" ],
      "location" : {
        "lat" : 42.36239871356099,
        "lon" : -71.08162851792984
      }
    },
    "lastUpdate" : "20140813T203039Z"
  }, {
    "type" : "place",
    "startTime" : "20140813T140127-0500",
    "endTime" : "20140813T151510-0500",
    "place" : {
      "id" : 10042714,
      "name" : "Harvard Alumni Association",
      "type" : "foursquare",
      "foursquareId" : "4b5dc68df964a520026b29e3",
      "foursquareCategoryIds" : [ "4bf58dd8d48988d1ae941735" ],
      "location" : {
        "lat" : 42.37317592010315,
        "lon" : -71.12325225275964
      }
    },
    "lastUpdate" : "20140813T233946Z"
  }, {
    "type" : "place",
    "startTime" : "20140813T151959-0500",
    "endTime" : "20140813T152421-0500",
    "place" : {
      "id" : 19413398,
      "name" : "Starbucks",
      "type" : "foursquare",
      "foursquareId" : "49cabb79f964a520d8581fe3",
      "foursquareCategoryIds" : [ "4bf58dd8d48988d1e0931735" ],
      "location" : {
        "lat" : 42.374494,
        "lon" : -71.12017
      }
    },
    "lastUpdate" : "20140922T170440Z"
  }, {
    "type" : "place",
    "startTime" : "20140813T153333-0500",
    "endTime" : "20140813T154223-0500",
    "place" : {
      "id" : 10149993,
      "name" : "Proximate",
      "type" : "foursquare",
      "foursquareId" : "51c8c0d1498e5d4d09a48362",
      "foursquareCategoryIds" : [ "4bf58dd8d48988d125941735" ],
      "location" : {
        "lat" : 42.378716,
        "lon" : -71.117205
      }
    },
    "lastUpdate" : "20140813T233946Z"
  }, {
    "type" : "place",
    "startTime" : "20140813T155200-0500",
    "endTime" : "20140814T081104-0500",
    "place" : {
      "id" : 9869005,
      "name" : "Home",
      "type" : "home",
      "location" : {
        "lat" : 42.3754311174,
        "lon" : -71.1114458017
      }
    },
    "lastUpdate" : "20140814T140937Z"
  } ],
  "lastUpdate" : "20140922T170440Z"
} ]