[ {
  "date" : "20141208",
  "segments" : [ {
    "type" : "place",
    "startTime" : "20141207T150522-0600",
    "endTime" : "20141208T114817-0600",
    "place" : {
      "id" : 9869005,
      "name" : "Home",
      "type" : "home",
      "location" : {
        "lat" : 42.3754311174,
        "lon" : -71.1114458017
      }
    },
    "lastUpdate" : "20141208T210830Z"
  }, {
    "type" : "place",
    "startTime" : "20141208T120457-0600",
    "endTime" : "20141208T122014-0600",
    "place" : {
      "id" : 83897718,
      "name" : "Aldrich 007",
      "type" : "foursquare",
      "foursquareId" : "4f26a4c1e4b0717a6a95ebb2",
      "foursquareCategoryIds" : [ "4bf58dd8d48988d1a0941735" ],
      "location" : {
        "lat" : 42.36595739324783,
        "lon" : -71.12248051490364
      }
    },
    "lastUpdate" : "20141208T210830Z"
  }, {
    "type" : "place",
    "startTime" : "20141208T122652-0600",
    "endTime" : "20141208T124640-0600",
    "place" : {
      "id" : 10115332,
      "name" : "Spangler Center",
      "type" : "foursquare",
      "foursquareId" : "4aeee0b0f964a52081d421e3",
      "foursquareCategoryIds" : [ "4bf58dd8d48988d1ab941735" ],
      "location" : {
        "lat" : 42.36522543920124,
        "lon" : -71.12218458495514
      }
    },
    "lastUpdate" : "20141208T210830Z"
  }, {
    "type" : "place",
    "startTime" : "20141208T130608-0600",
    "endTime" : "20141208T142031-0600",
    "place" : {
      "id" : 24692766,
      "name" : "Starbucks",
      "type" : "foursquare",
      "foursquareId" : "49bc4e56f964a52028541fe3",
      "foursquareCategoryIds" : [ "4bf58dd8d48988d16d941735" ],
      "location" : {
        "lat" : 42.372485,
        "lon" : -71.119452
      }
    },
    "lastUpdate" : "20141208T210830Z"
  }, {
    "type" : "place",
    "startTime" : "20141208T143137-0600",
    "endTime" : "20141208T173554-0600",
    "place" : {
      "id" : 9869005,
      "name" : "Home",
      "type" : "home",
      "location" : {
        "lat" : 42.3754311174,
        "lon" : -71.1114458017
      }
    },
    "lastUpdate" : "20141209T001520Z"
  }, {
    "type" : "place",
    "startTime" : "20141208T174831-0600",
    "endTime" : "20141208T192433-0600",
    "place" : {
      "id" : 89507215,
      "name" : "First Printer",
      "type" : "foursquare",
      "foursquareId" : "4f249887e4b006e5c25df9a2",
      "foursquareCategoryIds" : [ "4bf58dd8d48988d14f941735" ],
      "location" : {
        "lat" : 42.37291150229456,
        "lon" : -71.11881909172456
      }
    },
    "lastUpdate" : "20141209T032109Z"
  }, {
    "type" : "place",
    "startTime" : "20141208T193708-0600",
    "endTime" : "20141209T073959-0600",
    "place" : {
      "id" : 9869005,
      "name" : "Home",
      "type" : "home",
      "location" : {
        "lat" : 42.3754311174,
        "lon" : -71.1114458017
      }
    },
    "lastUpdate" : "20141209T141826Z"
  } ],
  "lastUpdate" : "20141209T141826Z"
} ]