[ {
  "date" : "20140622",
  "segments" : [ {
    "type" : "place",
    "startTime" : "20140622T001930-0400",
    "endTime" : "20140622T002930-0400",
    "place" : {
      "id" : 63658705,
      "name" : "John F. Kennedy International Airport (JFK)",
      "type" : "foursquare",
      "foursquareId" : "43a52546f964a520532c1fe3",
      "foursquareCategoryIds" : [ "4bf58dd8d48988d1ed931735" ],
      "location" : {
        "lat" : 40.64508935597635,
        "lon" : -73.7845230102539
      }
    },
    "lastUpdate" : "20140623T014556Z"
  }, {
    "type" : "place",
    "startTime" : "20140622T143201-0400",
    "endTime" : "20140622T145734-0400",
    "place" : {
      "id" : 63659916,
      "name" : "Aeropuerto Internacional Rafael Nuñez (CTG)",
      "type" : "foursquare",
      "foursquareId" : "4bb28fbf42959c74d307212c",
      "foursquareCategoryIds" : [ "4bf58dd8d48988d1ed931735" ],
      "location" : {
        "lat" : 10.44568996730285,
        "lon" : -75.51637172698975
      }
    },
    "lastUpdate" : "20140623T015324Z"
  }, {
    "type" : "place",
    "startTime" : "20140622T151712-0400",
    "endTime" : "20140622T152933-0400",
    "place" : {
      "id" : 63608568,
      "name" : "Hotel Caribe",
      "type" : "foursquare",
      "foursquareId" : "4c5bf64c2815c92804a3b067",
      "foursquareCategoryIds" : [ "4bf58dd8d48988d1fa931735" ],
      "location" : {
        "lat" : 10.39778326142664,
        "lon" : -75.56099212456311
      }
    },
    "lastUpdate" : "20140627T125430Z"
  }, {
    "type" : "place",
    "startTime" : "20140622T154407-0400",
    "endTime" : "20140622T174404-0400",
    "place" : {
      "id" : 63608569,
      "name" : "Sofitel Santa Clara",
      "type" : "foursquare",
      "foursquareId" : "4b51bb54f964a520cb5327e3",
      "foursquareCategoryIds" : [ "4bf58dd8d48988d1fa931735" ],
      "location" : {
        "lat" : 10.42821148511264,
        "lon" : -75.54786086082458
      }
    },
    "lastUpdate" : "20140623T015353Z"
  }, {
    "type" : "place",
    "startTime" : "20140622T174641-0400",
    "endTime" : "20140622T175132-0400",
    "place" : {
      "id" : 63626471,
      "type" : "unknown",
      "location" : {
        "lat" : 10.4267410172,
        "lon" : -75.5483003092
      }
    },
    "lastUpdate" : "20140622T225211Z"
  }, {
    "type" : "place",
    "startTime" : "20140622T175544-0400",
    "endTime" : "20140622T184914-0400",
    "place" : {
      "id" : 63608569,
      "name" : "Sofitel Santa Clara",
      "type" : "foursquare",
      "foursquareId" : "4b51bb54f964a520cb5327e3",
      "foursquareCategoryIds" : [ "4bf58dd8d48988d1fa931735" ],
      "location" : {
        "lat" : 10.42821148511264,
        "lon" : -75.54786086082458
      }
    },
    "lastUpdate" : "20140623T015353Z"
  }, {
    "type" : "place",
    "startTime" : "20140622T190351-0400",
    "endTime" : "20140622T200042-0400",
    "place" : {
      "id" : 63657647,
      "name" : "Café del Mar",
      "type" : "foursquare",
      "foursquareId" : "4b5239cbf964a520057127e3",
      "foursquareCategoryIds" : [ "4bf58dd8d48988d121941735" ],
      "location" : {
        "lat" : 10.42441054513274,
        "lon" : -75.5540900658858
      }
    },
    "lastUpdate" : "20140623T015426Z"
  }, {
    "type" : "place",
    "startTime" : "20140622T201020-0400",
    "endTime" : "20140622T205855-0400",
    "place" : {
      "id" : 63657648,
      "name" : "Krioyo",
      "type" : "foursquare",
      "foursquareId" : "4d598441ee346a316dc03051",
      "foursquareCategoryIds" : [ "4bf58dd8d48988d1ce941735" ],
      "location" : {
        "lat" : 10.42509874101677,
        "lon" : -75.5515730381012
      }
    },
    "lastUpdate" : "20140623T155813Z"
  }, {
    "type" : "place",
    "startTime" : "20140622T210510-0400",
    "endTime" : "20140622T211341-0400",
    "place" : {
      "id" : 63657668,
      "type" : "unknown",
      "location" : {
        "lat" : 10.4231526711,
        "lon" : -75.551053018
      }
    },
    "lastUpdate" : "20140623T155813Z"
  }, {
    "type" : "place",
    "startTime" : "20140622T215052-0400",
    "endTime" : "20140622T225446-0400",
    "place" : {
      "id" : 63608568,
      "name" : "Hotel Caribe",
      "type" : "foursquare",
      "foursquareId" : "4c5bf64c2815c92804a3b067",
      "foursquareCategoryIds" : [ "4bf58dd8d48988d1fa931735" ],
      "location" : {
        "lat" : 10.39778326142664,
        "lon" : -75.56099212456311
      }
    },
    "lastUpdate" : "20140625T022354Z"
  } ],
  "lastUpdate" : "20140627T125430Z"
} ]