[ {
  "date" : "20141101",
  "segments" : [ {
    "type" : "place",
    "startTime" : "20141031T230250-0400",
    "endTime" : "20141101T020737-0400",
    "place" : {
      "id" : 108331297,
      "name" : "Aryan Sameri Home",
      "type" : "home",
      "location" : {
        "lat" : 42.3593842284,
        "lon" : -71.131486428
      }
    },
    "lastUpdate" : "20141112T040112Z"
  }, {
    "type" : "place",
    "startTime" : "20141101T022147-0400",
    "endTime" : "20141101T103308-0400",
    "place" : {
      "id" : 9869005,
      "name" : "Home",
      "type" : "home",
      "location" : {
        "lat" : 42.3754311174,
        "lon" : -71.1114458017
      }
    },
    "lastUpdate" : "20141101T152843Z"
  }, {
    "type" : "place",
    "startTime" : "20141101T103640-0400",
    "endTime" : "20141101T104136-0400",
    "place" : {
      "id" : 51797004,
      "name" : "Starbucks",
      "type" : "foursquare",
      "foursquareId" : "4a5a3eb5f964a520f9b91fe3",
      "foursquareCategoryIds" : [ "4bf58dd8d48988d1e0931735" ],
      "location" : {
        "lat" : 42.373886,
        "lon" : -71.11295
      }
    },
    "lastUpdate" : "20141101T152843Z"
  }, {
    "type" : "place",
    "startTime" : "20141101T110346-0400",
    "endTime" : "20141101T123150-0400",
    "place" : {
      "id" : 84119446,
      "name" : "Aldrich Hall",
      "type" : "foursquare",
      "foursquareId" : "4ac64359f964a5206eb320e3",
      "foursquareCategoryIds" : [ "4bf58dd8d48988d198941735" ],
      "location" : {
        "lat" : 42.36578780710847,
        "lon" : -71.12210915179602
      }
    },
    "lastUpdate" : "20141101T194320Z"
  }, {
    "type" : "place",
    "startTime" : "20141101T123506-0400",
    "endTime" : "20141101T123838-0400",
    "place" : {
      "id" : 108571569,
      "type" : "unknown",
      "location" : {
        "lat" : 42.366714043,
        "lon" : -71.1228040051
      }
    },
    "lastUpdate" : "20141101T194320Z"
  }, {
    "type" : "place",
    "startTime" : "20141101T125340-0400",
    "endTime" : "20141101T160241-0400",
    "place" : {
      "id" : 56131645,
      "name" : "Crema Cafe",
      "type" : "foursquare",
      "foursquareId" : "49ce832ef964a5204f5a1fe3",
      "foursquareCategoryIds" : [ "4bf58dd8d48988d16d941735" ],
      "location" : {
        "lat" : 42.37349310617621,
        "lon" : -71.12068752421654
      }
    },
    "lastUpdate" : "20141101T211808Z"
  }, {
    "type" : "place",
    "startTime" : "20141101T161516-0400",
    "endTime" : "20141102T082111-0500",
    "place" : {
      "id" : 9869005,
      "name" : "Home",
      "type" : "home",
      "location" : {
        "lat" : 42.3754311174,
        "lon" : -71.1114458017
      }
    },
    "lastUpdate" : "20141102T142937Z"
  } ],
  "lastUpdate" : "20141112T040112Z"
}, {
  "date" : "20141102",
  "segments" : [ {
    "type" : "place",
    "startTime" : "20141101T161516-0400",
    "endTime" : "20141102T082111-0500",
    "place" : {
      "id" : 9869005,
      "name" : "Home",
      "type" : "home",
      "location" : {
        "lat" : 42.3754311174,
        "lon" : -71.1114458017
      }
    },
    "lastUpdate" : "20141102T142937Z"
  }, {
    "type" : "place",
    "startTime" : "20141102T083520-0500",
    "endTime" : "20141102T114741-0500",
    "place" : {
      "id" : 9869005,
      "name" : "Home",
      "type" : "home",
      "location" : {
        "lat" : 42.3754311174,
        "lon" : -71.1114458017
      }
    },
    "lastUpdate" : "20141102T203757Z"
  }, {
    "type" : "place",
    "startTime" : "20141102T120309-0500",
    "endTime" : "20141102T130531-0500",
    "place" : {
      "id" : 45081011,
      "name" : "Wagamama",
      "type" : "foursquare",
      "foursquareId" : "49e00a10f964a5203b611fe3",
      "foursquareCategoryIds" : [ "4bf58dd8d48988d1d1941735" ],
      "location" : {
        "lat" : 42.37189721215247,
        "lon" : -71.1207515001297
      }
    },
    "lastUpdate" : "20141102T203757Z"
  }, {
    "type" : "place",
    "startTime" : "20141102T131026-0500",
    "endTime" : "20141102T131742-0500",
    "place" : {
      "id" : 18127865,
      "name" : "CVS/pharmacy",
      "type" : "foursquare",
      "foursquareId" : "49df6a3ff964a520c6601fe3",
      "foursquareCategoryIds" : [ "4bf58dd8d48988d10f951735" ],
      "location" : {
        "lat" : 42.37402935435937,
        "lon" : -71.11899197101593
      }
    },
    "lastUpdate" : "20141102T203757Z"
  }, {
    "type" : "place",
    "startTime" : "20141102T132642-0500",
    "endTime" : "20141102T155144-0500",
    "place" : {
      "id" : 9869005,
      "name" : "Home",
      "type" : "home",
      "location" : {
        "lat" : 42.3754311174,
        "lon" : -71.1114458017
      }
    },
    "lastUpdate" : "20141102T220955Z"
  }, {
    "type" : "place",
    "startTime" : "20141102T160316-0500",
    "endTime" : "20141102T173404-0500",
    "place" : {
      "id" : 10115358,
      "name" : "Experiment Fund",
      "type" : "work",
      "location" : {
        "lat" : 42.37313766800413,
        "lon" : -71.11951231956482
      }
    },
    "lastUpdate" : "20141102T234344Z"
  }, {
    "type" : "place",
    "startTime" : "20141102T175228-0500",
    "endTime" : "20141103T073504-0500",
    "place" : {
      "id" : 9869005,
      "name" : "Home",
      "type" : "home",
      "location" : {
        "lat" : 42.3754311174,
        "lon" : -71.1114458017
      }
    },
    "lastUpdate" : "20141103T164510Z"
  } ],
  "lastUpdate" : "20141103T164510Z"
}, {
  "date" : "20141103",
  "segments" : [ {
    "type" : "place",
    "startTime" : "20141102T175228-0500",
    "endTime" : "20141103T073504-0500",
    "place" : {
      "id" : 9869005,
      "name" : "Home",
      "type" : "home",
      "location" : {
        "lat" : 42.3754311174,
        "lon" : -71.1114458017
      }
    },
    "lastUpdate" : "20141103T164510Z"
  }, {
    "type" : "place",
    "startTime" : "20141103T075840-0500",
    "endTime" : "20141103T154226-0500",
    "place" : {
      "id" : 84119446,
      "name" : "Aldrich Hall",
      "type" : "foursquare",
      "foursquareId" : "4ac64359f964a5206eb320e3",
      "foursquareCategoryIds" : [ "4bf58dd8d48988d198941735" ],
      "location" : {
        "lat" : 42.36578780710847,
        "lon" : -71.12210915179602
      }
    },
    "lastUpdate" : "20141104T064056Z"
  }, {
    "type" : "place",
    "startTime" : "20141103T160400-0500",
    "endTime" : "20141103T190841-0500",
    "place" : {
      "id" : 9869005,
      "name" : "Home",
      "type" : "home",
      "location" : {
        "lat" : 42.3754311174,
        "lon" : -71.1114458017
      }
    },
    "lastUpdate" : "20141104T064056Z"
  }, {
    "type" : "place",
    "startTime" : "20141103T192515-0500",
    "endTime" : "20141103T235056-0500",
    "place" : {
      "id" : 109258391,
      "name" : "K.C. Young Home",
      "type" : "home",
      "location" : {
        "lat" : 42.3649899572,
        "lon" : -71.1199653739
      }
    },
    "lastUpdate" : "20141108T212219Z"
  } ],
  "lastUpdate" : "20141108T212219Z"
}, {
  "date" : "20141104",
  "segments" : [ {
    "type" : "place",
    "startTime" : "20141104T000736-0500",
    "endTime" : "20141104T073412-0500",
    "place" : {
      "id" : 9869005,
      "name" : "Home",
      "type" : "home",
      "location" : {
        "lat" : 42.3754311174,
        "lon" : -71.1114458017
      }
    },
    "lastUpdate" : "20141104T160051Z"
  }, {
    "type" : "place",
    "startTime" : "20141104T075135-0500",
    "endTime" : "20141104T121400-0500",
    "place" : {
      "id" : 84119446,
      "name" : "Aldrich Hall",
      "type" : "foursquare",
      "foursquareId" : "4ac64359f964a5206eb320e3",
      "foursquareCategoryIds" : [ "4bf58dd8d48988d198941735" ],
      "location" : {
        "lat" : 42.36578780710847,
        "lon" : -71.12210915179602
      }
    },
    "lastUpdate" : "20141104T173558Z"
  }, {
    "type" : "place",
    "startTime" : "20141104T121637-0500",
    "endTime" : "20141104T143936-0500",
    "place" : {
      "id" : 84119446,
      "name" : "Aldrich Hall",
      "type" : "foursquare",
      "foursquareId" : "4ac64359f964a5206eb320e3",
      "foursquareCategoryIds" : [ "4bf58dd8d48988d198941735" ],
      "location" : {
        "lat" : 42.36578780710847,
        "lon" : -71.12210915179602
      }
    },
    "lastUpdate" : "20141105T073847Z"
  }, {
    "type" : "place",
    "startTime" : "20141104T150920-0500",
    "endTime" : "20141104T151427-0500",
    "place" : {
      "id" : 109426885,
      "type" : "unknown",
      "location" : {
        "lat" : 42.3823000717,
        "lon" : -71.1166828526
      }
    },
    "lastUpdate" : "20141105T073847Z"
  }, {
    "type" : "place",
    "startTime" : "20141104T153241-0500",
    "endTime" : "20141104T165427-0500",
    "place" : {
      "id" : 9869005,
      "name" : "Home",
      "type" : "home",
      "location" : {
        "lat" : 42.3754311174,
        "lon" : -71.1114458017
      }
    },
    "lastUpdate" : "20141105T165229Z"
  } ],
  "lastUpdate" : "20141105T165229Z"
}, {
  "date" : "20141105",
  "segments" : [ {
    "type" : "place",
    "startTime" : "20141105T023850-0500",
    "endTime" : "20141105T071948-0500",
    "place" : {
      "id" : 9869005,
      "name" : "Home",
      "type" : "home",
      "location" : {
        "lat" : 42.3754311174,
        "lon" : -71.1114458017
      }
    },
    "lastUpdate" : "20141105T165229Z"
  }, {
    "type" : "place",
    "startTime" : "20141105T072332-0500",
    "endTime" : "20141105T072806-0500",
    "place" : {
      "id" : 9869004,
      "name" : "Broadway Marketplace",
      "type" : "foursquare",
      "foursquareId" : "4a661612f964a520ffc71fe3",
      "foursquareCategoryIds" : [ "4bf58dd8d48988d118951735", "4bf58dd8d48988d1f5941735" ],
      "location" : {
        "lat" : 42.37405171427381,
        "lon" : -71.11300484548056
      }
    },
    "lastUpdate" : "20141105T165229Z"
  }, {
    "type" : "place",
    "startTime" : "20141105T074900-0500",
    "endTime" : "20141105T145707-0500",
    "place" : {
      "id" : 99453957,
      "name" : "Aldrich Hall",
      "type" : "foursquare",
      "foursquareId" : "4ac64359f964a5206eb320e3",
      "foursquareCategoryIds" : [ "4bf58dd8d48988d198941735" ],
      "location" : {
        "lat" : 42.36578780710847,
        "lon" : -71.12210915179602
      }
    },
    "lastUpdate" : "20141105T212845Z"
  }, {
    "type" : "place",
    "startTime" : "20141105T151927-0500",
    "endTime" : "20141105T181302-0500",
    "place" : {
      "id" : 9869005,
      "name" : "Home",
      "type" : "home",
      "location" : {
        "lat" : 42.3754311174,
        "lon" : -71.1114458017
      }
    },
    "lastUpdate" : "20141106T003121Z"
  }, {
    "type" : "place",
    "startTime" : "20141105T182741-0500",
    "endTime" : "20141105T201718-0500",
    "place" : {
      "id" : 22029405,
      "name" : "Park",
      "type" : "foursquare",
      "foursquareId" : "4f7c8902e4b032c26c6798db",
      "foursquareCategoryIds" : [ "4bf58dd8d48988d155941735" ],
      "location" : {
        "lat" : 42.37169409933257,
        "lon" : -71.12097185013617
      }
    },
    "lastUpdate" : "20141112T035927Z"
  }, {
    "type" : "place",
    "startTime" : "20141105T202935-0500",
    "endTime" : "20141106T074633-0500",
    "place" : {
      "id" : 9869005,
      "name" : "Home",
      "type" : "home",
      "location" : {
        "lat" : 42.3754311174,
        "lon" : -71.1114458017
      }
    },
    "lastUpdate" : "20141106T134444Z"
  } ],
  "lastUpdate" : "20141112T035927Z"
}, {
  "date" : "20141106",
  "segments" : [ {
    "type" : "place",
    "startTime" : "20141105T202935-0500",
    "endTime" : "20141106T074633-0500",
    "place" : {
      "id" : 9869005,
      "name" : "Home",
      "type" : "home",
      "location" : {
        "lat" : 42.3754311174,
        "lon" : -71.1114458017
      }
    },
    "lastUpdate" : "20141106T134444Z"
  }, {
    "type" : "place",
    "startTime" : "20141106T080756-0500",
    "endTime" : "20141106T130327-0500",
    "place" : {
      "id" : 103695223,
      "name" : "Spangler Center",
      "type" : "foursquare",
      "foursquareId" : "4aeee0b0f964a52081d421e3",
      "foursquareCategoryIds" : [ "4bf58dd8d48988d1ab941735" ],
      "location" : {
        "lat" : 42.36522543920124,
        "lon" : -71.12218458495514
      }
    },
    "lastUpdate" : "20141108T212147Z"
  }, {
    "type" : "place",
    "startTime" : "20141106T130718-0500",
    "endTime" : "20141106T142415-0500",
    "place" : {
      "id" : 103497933,
      "name" : "Batten Hall",
      "type" : "foursquare",
      "foursquareId" : "4f8c1d88e4b002b90db5dda7",
      "foursquareCategoryIds" : [ "4bf58dd8d48988d198941735" ],
      "location" : {
        "lat" : 42.3640615623146,
        "lon" : -71.12383604049683
      }
    },
    "lastUpdate" : "20141107T003232Z"
  }, {
    "type" : "place",
    "startTime" : "20141106T145449-0500",
    "endTime" : "20141106T200052-0500",
    "place" : {
      "id" : 9869005,
      "name" : "Home",
      "type" : "home",
      "location" : {
        "lat" : 42.3754311174,
        "lon" : -71.1114458017
      }
    },
    "lastUpdate" : "20141107T020451Z"
  }, {
    "type" : "place",
    "startTime" : "20141106T200941-0500",
    "endTime" : "20141106T223140-0500",
    "place" : {
      "id" : 92217670,
      "name" : "Will Whitney and Benjana Guraziu Home",
      "type" : "home",
      "location" : {
        "lat" : 42.3700145918,
        "lon" : -71.1114357056
      }
    },
    "lastUpdate" : "20141107T051252Z"
  }, {
    "type" : "place",
    "startTime" : "20141106T224105-0500",
    "endTime" : "20141107T072155-0500",
    "place" : {
      "id" : 9869005,
      "name" : "Home",
      "type" : "home",
      "location" : {
        "lat" : 42.3754311174,
        "lon" : -71.1114458017
      }
    },
    "lastUpdate" : "20141107T130521Z"
  } ],
  "lastUpdate" : "20141108T212147Z"
}, {
  "date" : "20141107",
  "segments" : [ {
    "type" : "place",
    "startTime" : "20141106T224105-0500",
    "endTime" : "20141107T072155-0500",
    "place" : {
      "id" : 9869005,
      "name" : "Home",
      "type" : "home",
      "location" : {
        "lat" : 42.3754311174,
        "lon" : -71.1114458017
      }
    },
    "lastUpdate" : "20141107T130521Z"
  }, {
    "type" : "place",
    "startTime" : "20141107T074557-0500",
    "endTime" : "20141107T084923-0500",
    "place" : {
      "id" : 103695223,
      "name" : "Spangler Center",
      "type" : "foursquare",
      "foursquareId" : "4aeee0b0f964a52081d421e3",
      "foursquareCategoryIds" : [ "4bf58dd8d48988d1ab941735" ],
      "location" : {
        "lat" : 42.36522543920124,
        "lon" : -71.12218458495514
      }
    },
    "lastUpdate" : "20141108T212147Z"
  }, {
    "type" : "place",
    "startTime" : "20141107T085415-0500",
    "endTime" : "20141107T125341-0500",
    "place" : {
      "id" : 84119446,
      "name" : "Aldrich Hall",
      "type" : "foursquare",
      "foursquareId" : "4ac64359f964a5206eb320e3",
      "foursquareCategoryIds" : [ "4bf58dd8d48988d198941735" ],
      "location" : {
        "lat" : 42.36578780710847,
        "lon" : -71.12210915179602
      }
    },
    "lastUpdate" : "20141107T204912Z"
  }, {
    "type" : "place",
    "startTime" : "20141107T130010-0500",
    "endTime" : "20141107T151222-0500",
    "place" : {
      "id" : 99453957,
      "name" : "Aldrich Hall",
      "type" : "foursquare",
      "foursquareId" : "4ac64359f964a5206eb320e3",
      "foursquareCategoryIds" : [ "4bf58dd8d48988d198941735" ],
      "location" : {
        "lat" : 42.36578780710847,
        "lon" : -71.12210915179602
      }
    },
    "lastUpdate" : "20141107T222042Z"
  }, {
    "type" : "place",
    "startTime" : "20141107T154244-0500",
    "endTime" : "20141107T163522-0500",
    "place" : {
      "id" : 10691553,
      "name" : "Floyd's 99 Barbershop",
      "type" : "foursquare",
      "foursquareId" : "4a9d711ff964a520443820e3",
      "foursquareCategoryIds" : [ "4bf58dd8d48988d110951735" ],
      "location" : {
        "lat" : 42.38213717937469,
        "lon" : -71.11979826
      }
    },
    "lastUpdate" : "20141107T222042Z"
  }, {
    "type" : "place",
    "startTime" : "20141107T165436-0500",
    "endTime" : "20141107T180013-0500",
    "place" : {
      "id" : 9869005,
      "name" : "Home",
      "type" : "home",
      "location" : {
        "lat" : 42.3754311174,
        "lon" : -71.1114458017
      }
    },
    "lastUpdate" : "20141107T235515Z"
  }, {
    "type" : "place",
    "startTime" : "20141107T181041-0500",
    "endTime" : "20141107T203659-0500",
    "place" : {
      "id" : 110264566,
      "name" : "Ethan Bernstein Home",
      "type" : "home",
      "location" : {
        "lat" : 42.3717835414,
        "lon" : -71.1130447028
      }
    },
    "lastUpdate" : "20141108T212119Z"
  }, {
    "type" : "place",
    "startTime" : "20141107T204842-0500",
    "endTime" : "20141108T010303-0500",
    "place" : {
      "id" : 110582799,
      "name" : "Tasty Burger",
      "type" : "foursquare",
      "foursquareId" : "50ce07b5e4b0ed7c4302d2bc",
      "foursquareCategoryIds" : [ "4bf58dd8d48988d16c941735" ],
      "location" : {
        "lat" : 42.37250286669323,
        "lon" : -71.12003183306106
      }
    },
    "lastUpdate" : "20141108T212052Z"
  } ],
  "lastUpdate" : "20141108T212147Z"
}, {
  "date" : "20141108",
  "segments" : [ {
    "type" : "place",
    "startTime" : "20141107T204842-0500",
    "endTime" : "20141108T010303-0500",
    "place" : {
      "id" : 110582799,
      "name" : "Tasty Burger",
      "type" : "foursquare",
      "foursquareId" : "50ce07b5e4b0ed7c4302d2bc",
      "foursquareCategoryIds" : [ "4bf58dd8d48988d16c941735" ],
      "location" : {
        "lat" : 42.37250286669323,
        "lon" : -71.12003183306106
      }
    },
    "lastUpdate" : "20141108T212052Z"
  }, {
    "type" : "place",
    "startTime" : "20141108T010938-0500",
    "endTime" : "20141108T022132-0500",
    "place" : {
      "id" : 99718554,
      "name" : "Daedalus",
      "type" : "foursquare",
      "foursquareId" : "44e1b94ff964a5201f371fe3",
      "foursquareCategoryIds" : [ "4bf58dd8d48988d1c4941735" ],
      "location" : {
        "lat" : 42.37134308090408,
        "lon" : -71.1165560717644
      }
    },
    "lastUpdate" : "20141108T165956Z"
  }, {
    "type" : "place",
    "startTime" : "20141108T022641-0500",
    "endTime" : "20141108T025143-0500",
    "place" : {
      "id" : 110264566,
      "name" : "Ethan Bernstein Home",
      "type" : "home",
      "location" : {
        "lat" : 42.3717835414,
        "lon" : -71.1130447028
      }
    },
    "lastUpdate" : "20141108T212119Z"
  }, {
    "type" : "place",
    "startTime" : "20141108T025818-0500",
    "endTime" : "20141108T163550-0500",
    "place" : {
      "id" : 9869005,
      "name" : "Home",
      "type" : "home",
      "location" : {
        "lat" : 42.3754311174,
        "lon" : -71.1114458017
      }
    },
    "lastUpdate" : "20141109T021003Z"
  }, {
    "type" : "place",
    "startTime" : "20141108T183102-0500",
    "endTime" : "20141108T213424-0500",
    "place" : {
      "id" : 110649044,
      "name" : "Showcase Providence Place & IMAX",
      "type" : "foursquare",
      "foursquareId" : "4b303561f964a520caf724e3",
      "foursquareCategoryIds" : [ "4bf58dd8d48988d180941735" ],
      "location" : {
        "lat" : 41.827683,
        "lon" : -71.415854
      }
    },
    "lastUpdate" : "20141112T035936Z"
  }, {
    "type" : "place",
    "startTime" : "20141108T214203-0500",
    "endTime" : "20141108T215103-0500",
    "place" : {
      "id" : 110667094,
      "type" : "unknown",
      "location" : {
        "lat" : 41.8288273381,
        "lon" : -71.4167024169
      }
    },
    "lastUpdate" : "20141109T051333Z"
  }, {
    "type" : "place",
    "startTime" : "20141108T215331-0500",
    "endTime" : "20141108T220325-0500",
    "place" : {
      "id" : 110667095,
      "type" : "unknown",
      "location" : {
        "lat" : 41.8279771792,
        "lon" : -71.4181449629
      }
    },
    "lastUpdate" : "20141109T051333Z"
  }, {
    "type" : "place",
    "startTime" : "20141108T231148-0500",
    "endTime" : "20141109T114229-0500",
    "place" : {
      "id" : 9869005,
      "name" : "Home",
      "type" : "home",
      "location" : {
        "lat" : 42.3754311174,
        "lon" : -71.1114458017
      }
    },
    "lastUpdate" : "20141109T175407Z"
  } ],
  "lastUpdate" : "20141112T035936Z"
}, {
  "date" : "20141109",
  "segments" : [ {
    "type" : "place",
    "startTime" : "20141108T231148-0500",
    "endTime" : "20141109T114229-0500",
    "place" : {
      "id" : 9869005,
      "name" : "Home",
      "type" : "home",
      "location" : {
        "lat" : 42.3754311174,
        "lon" : -71.1114458017
      }
    },
    "lastUpdate" : "20141109T175407Z"
  }, {
    "type" : "place",
    "startTime" : "20141109T115508-0500",
    "endTime" : "20141109T124550-0500",
    "place" : {
      "id" : 22029405,
      "name" : "Park",
      "type" : "foursquare",
      "foursquareId" : "4f7c8902e4b032c26c6798db",
      "foursquareCategoryIds" : [ "4bf58dd8d48988d155941735" ],
      "location" : {
        "lat" : 42.37169409933257,
        "lon" : -71.12097185013617
      }
    },
    "lastUpdate" : "20141112T035927Z"
  }, {
    "type" : "place",
    "startTime" : "20141109T125827-0500",
    "endTime" : "20141110T073746-0500",
    "place" : {
      "id" : 9869005,
      "name" : "Home",
      "type" : "home",
      "location" : {
        "lat" : 42.3754311174,
        "lon" : -71.1114458017
      }
    },
    "lastUpdate" : "20141110T141402Z"
  } ],
  "lastUpdate" : "20141112T035927Z"
}, {
  "date" : "20141110",
  "segments" : [ {
    "type" : "place",
    "startTime" : "20141109T125827-0500",
    "endTime" : "20141110T073746-0500",
    "place" : {
      "id" : 9869005,
      "name" : "Home",
      "type" : "home",
      "location" : {
        "lat" : 42.3754311174,
        "lon" : -71.1114458017
      }
    },
    "lastUpdate" : "20141110T141402Z"
  }, {
    "type" : "place",
    "startTime" : "20141110T080155-0500",
    "endTime" : "20141110T121434-0500",
    "place" : {
      "id" : 84119446,
      "name" : "Aldrich Hall",
      "type" : "foursquare",
      "foursquareId" : "4ac64359f964a5206eb320e3",
      "foursquareCategoryIds" : [ "4bf58dd8d48988d198941735" ],
      "location" : {
        "lat" : 42.36578780710847,
        "lon" : -71.12210915179602
      }
    },
    "lastUpdate" : "20141110T185337Z"
  }, {
    "type" : "place",
    "startTime" : "20141110T124536-0500",
    "endTime" : "20141110T185944-0500",
    "place" : {
      "id" : 9869005,
      "name" : "Home",
      "type" : "home",
      "location" : {
        "lat" : 42.3754311174,
        "lon" : -71.1114458017
      }
    },
    "lastUpdate" : "20141111T005751Z"
  }, {
    "type" : "place",
    "startTime" : "20141110T191250-0500",
    "endTime" : "20141110T233344-0500",
    "place" : {
      "id" : 110582799,
      "name" : "Tasty Burger",
      "type" : "foursquare",
      "foursquareId" : "50ce07b5e4b0ed7c4302d2bc",
      "foursquareCategoryIds" : [ "4bf58dd8d48988d16c941735" ],
      "location" : {
        "lat" : 42.37250286669323,
        "lon" : -71.12003183306106
      }
    },
    "lastUpdate" : "20141112T035918Z"
  }, {
    "type" : "place",
    "startTime" : "20141110T234721-0500",
    "endTime" : "20141111T140337-0500",
    "place" : {
      "id" : 9869005,
      "name" : "Home",
      "type" : "home",
      "location" : {
        "lat" : 42.3754311174,
        "lon" : -71.1114458017
      }
    },
    "lastUpdate" : "20141112T015100Z"
  } ],
  "lastUpdate" : "20141112T035918Z"
}, {
  "date" : "20141111",
  "segments" : [ {
    "type" : "place",
    "startTime" : "20141110T234721-0500",
    "endTime" : "20141111T140337-0500",
    "place" : {
      "id" : 9869005,
      "name" : "Home",
      "type" : "home",
      "location" : {
        "lat" : 42.3754311174,
        "lon" : -71.1114458017
      }
    },
    "lastUpdate" : "20141112T015100Z"
  }, {
    "type" : "place",
    "startTime" : "20141111T142913-0500",
    "endTime" : "20141111T150405-0500",
    "place" : {
      "id" : 45952503,
      "name" : "Michaels",
      "type" : "foursquare",
      "foursquareId" : "505dbfcee4b02c96b410cb99",
      "foursquareCategoryIds" : [ "4bf58dd8d48988d127951735" ],
      "location" : {
        "lat" : 42.389114,
        "lon" : -71.117966
      }
    },
    "lastUpdate" : "20141112T040009Z"
  }, {
    "type" : "place",
    "startTime" : "20141111T152816-0500",
    "endTime" : "20141111T222730-0500",
    "place" : {
      "id" : 9869005,
      "name" : "Home",
      "type" : "home",
      "location" : {
        "lat" : 42.3754311174,
        "lon" : -71.1114458017
      }
    },
    "lastUpdate" : "20141112T055522Z"
  }, {
    "type" : "place",
    "startTime" : "20141111T224548-0500",
    "endTime" : "20141112T074357-0500",
    "place" : {
      "id" : 9869005,
      "name" : "Home",
      "type" : "home",
      "location" : {
        "lat" : 42.3754311174,
        "lon" : -71.1114458017
      }
    },
    "lastUpdate" : "20141112T134751Z"
  } ],
  "lastUpdate" : "20141112T134751Z"
}, {
  "date" : "20141112",
  "segments" : [ {
    "type" : "place",
    "startTime" : "20141111T224548-0500",
    "endTime" : "20141112T074357-0500",
    "place" : {
      "id" : 9869005,
      "name" : "Home",
      "type" : "home",
      "location" : {
        "lat" : 42.3754311174,
        "lon" : -71.1114458017
      }
    },
    "lastUpdate" : "20141112T134751Z"
  }, {
    "type" : "place",
    "startTime" : "20141112T080901-0500",
    "endTime" : "20141112T085635-0500",
    "place" : {
      "id" : 10115332,
      "name" : "Spangler Center",
      "type" : "foursquare",
      "foursquareId" : "4aeee0b0f964a52081d421e3",
      "foursquareCategoryIds" : [ "4bf58dd8d48988d1ab941735" ],
      "location" : {
        "lat" : 42.36522543920124,
        "lon" : -71.12218458495514
      }
    },
    "lastUpdate" : "20141112T152155Z"
  }, {
    "type" : "place",
    "startTime" : "20141112T090101-0500",
    "endTime" : "20141112T162557-0500",
    "place" : {
      "id" : 84119446,
      "name" : "Aldrich Hall",
      "type" : "foursquare",
      "foursquareId" : "4ac64359f964a5206eb320e3",
      "foursquareCategoryIds" : [ "4bf58dd8d48988d198941735" ],
      "location" : {
        "lat" : 42.36578780710847,
        "lon" : -71.12210915179602
      }
    },
    "lastUpdate" : "20141113T003519Z"
  }, {
    "type" : "place",
    "startTime" : "20141112T175340-0500",
    "endTime" : "20141112T185255-0500",
    "place" : {
      "id" : 82803313,
      "name" : "Impact Hub Boston",
      "type" : "foursquare",
      "foursquareId" : "535ef432498eb46f6389ecf5",
      "foursquareCategoryIds" : [ "52e81612bcbc57f1066b7a34" ],
      "location" : {
        "lat" : 42.3568123867606,
        "lon" : -71.05773051318191
      }
    },
    "lastUpdate" : "20141113T020727Z"
  }, {
    "type" : "place",
    "startTime" : "20141112T185533-0500",
    "endTime" : "20141112T190933-0500",
    "place" : {
      "id" : 111672072,
      "type" : "unknown",
      "location" : {
        "lat" : 42.3555794765,
        "lon" : -71.0570839524
      }
    },
    "lastUpdate" : "20141113T020727Z"
  }, {
    "type" : "place",
    "startTime" : "20141112T192916-0500",
    "endTime" : "20141112T200451-0500",
    "place" : {
      "id" : 83897718,
      "name" : "Aldrich 007",
      "type" : "foursquare",
      "foursquareId" : "4f26a4c1e4b0717a6a95ebb2",
      "foursquareCategoryIds" : [ "4bf58dd8d48988d1a0941735" ],
      "location" : {
        "lat" : 42.36595739324783,
        "lon" : -71.12248051490364
      }
    },
    "lastUpdate" : "20141113T020727Z"
  }, {
    "type" : "place",
    "startTime" : "20141112T200946-0500",
    "endTime" : "20141112T211846-0500",
    "place" : {
      "id" : 111684170,
      "type" : "unknown",
      "location" : {
        "lat" : 42.3675664776,
        "lon" : -71.1240390179
      }
    },
    "lastUpdate" : "20141113T033912Z"
  }, {
    "type" : "place",
    "startTime" : "20141112T213517-0500",
    "endTime" : "20141113T000846-0500",
    "place" : {
      "id" : 10042715,
      "name" : "Border Cafe",
      "type" : "foursquare",
      "foursquareId" : "3fd66200f964a520bded1ee3",
      "foursquareCategoryIds" : [ "4bf58dd8d48988d1c1941735", "4bf58dd8d48988d17a941735" ],
      "location" : {
        "lat" : 42.3743468,
        "lon" : -71.120141
      }
    },
    "lastUpdate" : "20141113T153953Z"
  } ],
  "lastUpdate" : "20141113T153953Z"
}, {
  "date" : "20141113",
  "segments" : [ {
    "type" : "place",
    "startTime" : "20141112T213517-0500",
    "endTime" : "20141113T000846-0500",
    "place" : {
      "id" : 10042715,
      "name" : "Border Cafe",
      "type" : "foursquare",
      "foursquareId" : "3fd66200f964a520bded1ee3",
      "foursquareCategoryIds" : [ "4bf58dd8d48988d1c1941735", "4bf58dd8d48988d17a941735" ],
      "location" : {
        "lat" : 42.3743468,
        "lon" : -71.120141
      }
    },
    "lastUpdate" : "20141113T153953Z"
  }, {
    "type" : "place",
    "startTime" : "20141113T002330-0500",
    "endTime" : "20141113T074257-0500",
    "place" : {
      "id" : 9869005,
      "name" : "Home",
      "type" : "home",
      "location" : {
        "lat" : 42.3754311174,
        "lon" : -71.1114458017
      }
    },
    "lastUpdate" : "20141113T143817Z"
  }, {
    "type" : "place",
    "startTime" : "20141113T080505-0500",
    "endTime" : "20141113T121642-0500",
    "place" : {
      "id" : 84119446,
      "name" : "Aldrich Hall",
      "type" : "foursquare",
      "foursquareId" : "4ac64359f964a5206eb320e3",
      "foursquareCategoryIds" : [ "4bf58dd8d48988d198941735" ],
      "location" : {
        "lat" : 42.36578780710847,
        "lon" : -71.12210915179602
      }
    },
    "lastUpdate" : "20141113T202315Z"
  }, {
    "type" : "place",
    "startTime" : "20141113T123948-0500",
    "endTime" : "20141113T131538-0500",
    "place" : {
      "id" : 9869005,
      "name" : "Home",
      "type" : "home",
      "location" : {
        "lat" : 42.3754311174,
        "lon" : -71.1114458017
      }
    },
    "lastUpdate" : "20141113T202315Z"
  }, {
    "type" : "place",
    "startTime" : "20141113T132620-0500",
    "endTime" : "20141113T140204-0500",
    "place" : {
      "id" : 83673517,
      "name" : "Petsi Pies",
      "type" : "foursquare",
      "foursquareId" : "49f9f896f964a5209f6d1fe3",
      "foursquareCategoryIds" : [ "4bf58dd8d48988d1e0931735" ],
      "location" : {
        "lat" : 42.36892873750989,
        "lon" : -71.11353635787964
      }
    },
    "lastUpdate" : "20141113T202315Z"
  }, {
    "type" : "place",
    "startTime" : "20141113T141337-0500",
    "endTime" : "20141113T163323-0500",
    "place" : {
      "id" : 9869005,
      "name" : "Home",
      "type" : "home",
      "location" : {
        "lat" : 42.3754311174,
        "lon" : -71.1114458017
      }
    },
    "lastUpdate" : "20141113T213325Z"
  } ],
  "lastUpdate" : "20141113T213325Z"
} ]