[ {
  "date" : "20141101",
  "segments" : [ {
    "type" : "place",
    "startTime" : "20141031T220250-0500",
    "endTime" : "20141101T010737-0500",
    "place" : {
      "id" : 108331297,
      "name" : "Aryan Sameri Home",
      "type" : "home",
      "location" : {
        "lat" : 42.3593842284,
        "lon" : -71.131486428
      }
    },
    "lastUpdate" : "20141112T040112Z"
  }, {
    "type" : "place",
    "startTime" : "20141101T012147-0500",
    "endTime" : "20141101T093308-0500",
    "place" : {
      "id" : 9869005,
      "name" : "Home",
      "type" : "home",
      "location" : {
        "lat" : 42.3754311174,
        "lon" : -71.1114458017
      }
    },
    "lastUpdate" : "20141101T152843Z"
  }, {
    "type" : "place",
    "startTime" : "20141101T093640-0500",
    "endTime" : "20141101T094136-0500",
    "place" : {
      "id" : 51797004,
      "name" : "Starbucks",
      "type" : "foursquare",
      "foursquareId" : "4a5a3eb5f964a520f9b91fe3",
      "foursquareCategoryIds" : [ "4bf58dd8d48988d1e0931735" ],
      "location" : {
        "lat" : 42.373886,
        "lon" : -71.11295
      }
    },
    "lastUpdate" : "20141101T152843Z"
  }, {
    "type" : "place",
    "startTime" : "20141101T100346-0500",
    "endTime" : "20141101T113150-0500",
    "place" : {
      "id" : 84119446,
      "name" : "Aldrich Hall",
      "type" : "foursquare",
      "foursquareId" : "4ac64359f964a5206eb320e3",
      "foursquareCategoryIds" : [ "4bf58dd8d48988d198941735" ],
      "location" : {
        "lat" : 42.36578780710847,
        "lon" : -71.12210915179602
      }
    },
    "lastUpdate" : "20141217T041832Z"
  }, {
    "type" : "place",
    "startTime" : "20141101T113506-0500",
    "endTime" : "20141101T113838-0500",
    "place" : {
      "id" : 108571569,
      "type" : "unknown",
      "location" : {
        "lat" : 42.366714043,
        "lon" : -71.1228040051
      }
    },
    "lastUpdate" : "20141101T194320Z"
  }, {
    "type" : "place",
    "startTime" : "20141101T115340-0500",
    "endTime" : "20141101T150241-0500",
    "place" : {
      "id" : 56131645,
      "name" : "Crema Cafe",
      "type" : "foursquare",
      "foursquareId" : "49ce832ef964a5204f5a1fe3",
      "foursquareCategoryIds" : [ "4bf58dd8d48988d16d941735" ],
      "location" : {
        "lat" : 42.37349310617621,
        "lon" : -71.12068752421654
      }
    },
    "lastUpdate" : "20141101T211808Z"
  }, {
    "type" : "place",
    "startTime" : "20141101T151516-0500",
    "endTime" : "20141102T072111-0600",
    "place" : {
      "id" : 9869005,
      "name" : "Home",
      "type" : "home",
      "location" : {
        "lat" : 42.3754311174,
        "lon" : -71.1114458017
      }
    },
    "lastUpdate" : "20141102T142937Z"
  } ],
  "lastUpdate" : "20141217T041832Z"
}, {
  "date" : "20141102",
  "segments" : [ {
    "type" : "place",
    "startTime" : "20141101T151516-0500",
    "endTime" : "20141102T072111-0600",
    "place" : {
      "id" : 9869005,
      "name" : "Home",
      "type" : "home",
      "location" : {
        "lat" : 42.3754311174,
        "lon" : -71.1114458017
      }
    },
    "lastUpdate" : "20141102T142937Z"
  }, {
    "type" : "place",
    "startTime" : "20141102T073520-0600",
    "endTime" : "20141102T104741-0600",
    "place" : {
      "id" : 9869005,
      "name" : "Home",
      "type" : "home",
      "location" : {
        "lat" : 42.3754311174,
        "lon" : -71.1114458017
      }
    },
    "lastUpdate" : "20141102T203757Z"
  }, {
    "type" : "place",
    "startTime" : "20141102T110309-0600",
    "endTime" : "20141102T120531-0600",
    "place" : {
      "id" : 45081011,
      "name" : "Wagamama",
      "type" : "foursquare",
      "foursquareId" : "49e00a10f964a5203b611fe3",
      "foursquareCategoryIds" : [ "4bf58dd8d48988d1d1941735" ],
      "location" : {
        "lat" : 42.37189721215247,
        "lon" : -71.1207515001297
      }
    },
    "lastUpdate" : "20141102T203757Z"
  }, {
    "type" : "place",
    "startTime" : "20141102T121026-0600",
    "endTime" : "20141102T121742-0600",
    "place" : {
      "id" : 18127865,
      "name" : "CVS/pharmacy",
      "type" : "foursquare",
      "foursquareId" : "49df6a3ff964a520c6601fe3",
      "foursquareCategoryIds" : [ "4bf58dd8d48988d10f951735" ],
      "location" : {
        "lat" : 42.37402935435937,
        "lon" : -71.11899197101593
      }
    },
    "lastUpdate" : "20141102T203757Z"
  }, {
    "type" : "place",
    "startTime" : "20141102T122642-0600",
    "endTime" : "20141102T145144-0600",
    "place" : {
      "id" : 9869005,
      "name" : "Home",
      "type" : "home",
      "location" : {
        "lat" : 42.3754311174,
        "lon" : -71.1114458017
      }
    },
    "lastUpdate" : "20141102T220955Z"
  }, {
    "type" : "place",
    "startTime" : "20141102T150316-0600",
    "endTime" : "20141102T163404-0600",
    "place" : {
      "id" : 10115358,
      "name" : "Experiment Fund",
      "type" : "work",
      "location" : {
        "lat" : 42.37313766800413,
        "lon" : -71.11951231956482
      }
    },
    "lastUpdate" : "20141102T234344Z"
  }, {
    "type" : "place",
    "startTime" : "20141102T165228-0600",
    "endTime" : "20141103T063504-0600",
    "place" : {
      "id" : 9869005,
      "name" : "Home",
      "type" : "home",
      "location" : {
        "lat" : 42.3754311174,
        "lon" : -71.1114458017
      }
    },
    "lastUpdate" : "20141103T164510Z"
  } ],
  "lastUpdate" : "20141103T164510Z"
}, {
  "date" : "20141103",
  "segments" : [ {
    "type" : "place",
    "startTime" : "20141102T165228-0600",
    "endTime" : "20141103T063504-0600",
    "place" : {
      "id" : 9869005,
      "name" : "Home",
      "type" : "home",
      "location" : {
        "lat" : 42.3754311174,
        "lon" : -71.1114458017
      }
    },
    "lastUpdate" : "20141103T164510Z"
  }, {
    "type" : "place",
    "startTime" : "20141103T065840-0600",
    "endTime" : "20141103T144226-0600",
    "place" : {
      "id" : 84119446,
      "name" : "Aldrich Hall",
      "type" : "foursquare",
      "foursquareId" : "4ac64359f964a5206eb320e3",
      "foursquareCategoryIds" : [ "4bf58dd8d48988d198941735" ],
      "location" : {
        "lat" : 42.36578780710847,
        "lon" : -71.12210915179602
      }
    },
    "lastUpdate" : "20141217T041832Z"
  }, {
    "type" : "place",
    "startTime" : "20141103T150400-0600",
    "endTime" : "20141103T180841-0600",
    "place" : {
      "id" : 9869005,
      "name" : "Home",
      "type" : "home",
      "location" : {
        "lat" : 42.3754311174,
        "lon" : -71.1114458017
      }
    },
    "lastUpdate" : "20141104T064056Z"
  }, {
    "type" : "place",
    "startTime" : "20141103T182515-0600",
    "endTime" : "20141103T225056-0600",
    "place" : {
      "id" : 109258391,
      "name" : "K.C. Young Home",
      "type" : "home",
      "location" : {
        "lat" : 42.3649899572,
        "lon" : -71.1199653739
      }
    },
    "lastUpdate" : "20141108T212219Z"
  }, {
    "type" : "place",
    "startTime" : "20141103T230736-0600",
    "endTime" : "20141104T063412-0600",
    "place" : {
      "id" : 9869005,
      "name" : "Home",
      "type" : "home",
      "location" : {
        "lat" : 42.3754311174,
        "lon" : -71.1114458017
      }
    },
    "lastUpdate" : "20141104T160051Z"
  } ],
  "lastUpdate" : "20141217T041832Z"
}, {
  "date" : "20141104",
  "segments" : [ {
    "type" : "place",
    "startTime" : "20141103T230736-0600",
    "endTime" : "20141104T063412-0600",
    "place" : {
      "id" : 9869005,
      "name" : "Home",
      "type" : "home",
      "location" : {
        "lat" : 42.3754311174,
        "lon" : -71.1114458017
      }
    },
    "lastUpdate" : "20141104T160051Z"
  }, {
    "type" : "place",
    "startTime" : "20141104T065135-0600",
    "endTime" : "20141104T111400-0600",
    "place" : {
      "id" : 84119446,
      "name" : "Aldrich Hall",
      "type" : "foursquare",
      "foursquareId" : "4ac64359f964a5206eb320e3",
      "foursquareCategoryIds" : [ "4bf58dd8d48988d198941735" ],
      "location" : {
        "lat" : 42.36578780710847,
        "lon" : -71.12210915179602
      }
    },
    "lastUpdate" : "20141217T041832Z"
  }, {
    "type" : "place",
    "startTime" : "20141104T111637-0600",
    "endTime" : "20141104T133936-0600",
    "place" : {
      "id" : 84119446,
      "name" : "Aldrich Hall",
      "type" : "foursquare",
      "foursquareId" : "4ac64359f964a5206eb320e3",
      "foursquareCategoryIds" : [ "4bf58dd8d48988d198941735" ],
      "location" : {
        "lat" : 42.36578780710847,
        "lon" : -71.12210915179602
      }
    },
    "lastUpdate" : "20141217T041832Z"
  }, {
    "type" : "place",
    "startTime" : "20141104T140920-0600",
    "endTime" : "20141104T141427-0600",
    "place" : {
      "id" : 109426885,
      "type" : "unknown",
      "location" : {
        "lat" : 42.3823000717,
        "lon" : -71.1166828526
      }
    },
    "lastUpdate" : "20141105T073847Z"
  }, {
    "type" : "place",
    "startTime" : "20141104T143241-0600",
    "endTime" : "20141104T155427-0600",
    "place" : {
      "id" : 9869005,
      "name" : "Home",
      "type" : "home",
      "location" : {
        "lat" : 42.3754311174,
        "lon" : -71.1114458017
      }
    },
    "lastUpdate" : "20141105T165229Z"
  } ],
  "lastUpdate" : "20141217T041832Z"
}, {
  "date" : "20141105",
  "segments" : [ {
    "type" : "place",
    "startTime" : "20141105T013850-0600",
    "endTime" : "20141105T061948-0600",
    "place" : {
      "id" : 9869005,
      "name" : "Home",
      "type" : "home",
      "location" : {
        "lat" : 42.3754311174,
        "lon" : -71.1114458017
      }
    },
    "lastUpdate" : "20141105T165229Z"
  }, {
    "type" : "place",
    "startTime" : "20141105T062332-0600",
    "endTime" : "20141105T062806-0600",
    "place" : {
      "id" : 9869004,
      "name" : "Broadway Marketplace",
      "type" : "foursquare",
      "foursquareId" : "4a661612f964a520ffc71fe3",
      "foursquareCategoryIds" : [ "4bf58dd8d48988d118951735", "4bf58dd8d48988d1f5941735" ],
      "location" : {
        "lat" : 42.37405171427381,
        "lon" : -71.11300484548056
      }
    },
    "lastUpdate" : "20141105T165229Z"
  }, {
    "type" : "place",
    "startTime" : "20141105T064900-0600",
    "endTime" : "20141105T135707-0600",
    "place" : {
      "id" : 99453957,
      "name" : "Aldrich Hall",
      "type" : "foursquare",
      "foursquareId" : "4ac64359f964a5206eb320e3",
      "foursquareCategoryIds" : [ "4bf58dd8d48988d198941735" ],
      "location" : {
        "lat" : 42.36578780710847,
        "lon" : -71.12210915179602
      }
    },
    "lastUpdate" : "20141105T212845Z"
  }, {
    "type" : "place",
    "startTime" : "20141105T141927-0600",
    "endTime" : "20141105T171302-0600",
    "place" : {
      "id" : 9869005,
      "name" : "Home",
      "type" : "home",
      "location" : {
        "lat" : 42.3754311174,
        "lon" : -71.1114458017
      }
    },
    "lastUpdate" : "20141106T003121Z"
  }, {
    "type" : "place",
    "startTime" : "20141105T172741-0600",
    "endTime" : "20141105T191718-0600",
    "place" : {
      "id" : 22029405,
      "name" : "Park",
      "type" : "foursquare",
      "foursquareId" : "4f7c8902e4b032c26c6798db",
      "foursquareCategoryIds" : [ "4bf58dd8d48988d155941735" ],
      "location" : {
        "lat" : 42.37169409933257,
        "lon" : -71.12097185013617
      }
    },
    "lastUpdate" : "20141129T021321Z"
  }, {
    "type" : "place",
    "startTime" : "20141105T192935-0600",
    "endTime" : "20141106T064633-0600",
    "place" : {
      "id" : 9869005,
      "name" : "Home",
      "type" : "home",
      "location" : {
        "lat" : 42.3754311174,
        "lon" : -71.1114458017
      }
    },
    "lastUpdate" : "20141106T134444Z"
  } ],
  "lastUpdate" : "20141129T021321Z"
}, {
  "date" : "20141106",
  "segments" : [ {
    "type" : "place",
    "startTime" : "20141105T192935-0600",
    "endTime" : "20141106T064633-0600",
    "place" : {
      "id" : 9869005,
      "name" : "Home",
      "type" : "home",
      "location" : {
        "lat" : 42.3754311174,
        "lon" : -71.1114458017
      }
    },
    "lastUpdate" : "20141106T134444Z"
  }, {
    "type" : "place",
    "startTime" : "20141106T070756-0600",
    "endTime" : "20141106T120327-0600",
    "place" : {
      "id" : 103695223,
      "name" : "Spangler Center",
      "type" : "foursquare",
      "foursquareId" : "4aeee0b0f964a52081d421e3",
      "foursquareCategoryIds" : [ "4bf58dd8d48988d1ab941735" ],
      "location" : {
        "lat" : 42.36522543920124,
        "lon" : -71.12218458495514
      }
    },
    "lastUpdate" : "20141108T212147Z"
  }, {
    "type" : "place",
    "startTime" : "20141106T120718-0600",
    "endTime" : "20141106T132415-0600",
    "place" : {
      "id" : 103497933,
      "name" : "Batten Hall",
      "type" : "foursquare",
      "foursquareId" : "4f8c1d88e4b002b90db5dda7",
      "foursquareCategoryIds" : [ "4bf58dd8d48988d198941735" ],
      "location" : {
        "lat" : 42.3640615623146,
        "lon" : -71.12383604049683
      }
    },
    "lastUpdate" : "20141107T003232Z"
  }, {
    "type" : "place",
    "startTime" : "20141106T135449-0600",
    "endTime" : "20141106T190052-0600",
    "place" : {
      "id" : 9869005,
      "name" : "Home",
      "type" : "home",
      "location" : {
        "lat" : 42.3754311174,
        "lon" : -71.1114458017
      }
    },
    "lastUpdate" : "20141107T020451Z"
  }, {
    "type" : "place",
    "startTime" : "20141106T190941-0600",
    "endTime" : "20141106T213140-0600",
    "place" : {
      "id" : 92217670,
      "name" : "Will Whitney and Benjana Guraziu Home",
      "type" : "home",
      "location" : {
        "lat" : 42.3700145918,
        "lon" : -71.1114357056
      }
    },
    "lastUpdate" : "20141107T051252Z"
  }, {
    "type" : "place",
    "startTime" : "20141106T214105-0600",
    "endTime" : "20141107T062155-0600",
    "place" : {
      "id" : 9869005,
      "name" : "Home",
      "type" : "home",
      "location" : {
        "lat" : 42.3754311174,
        "lon" : -71.1114458017
      }
    },
    "lastUpdate" : "20141107T130521Z"
  } ],
  "lastUpdate" : "20141108T212147Z"
}, {
  "date" : "20141107",
  "segments" : [ {
    "type" : "place",
    "startTime" : "20141106T214105-0600",
    "endTime" : "20141107T062155-0600",
    "place" : {
      "id" : 9869005,
      "name" : "Home",
      "type" : "home",
      "location" : {
        "lat" : 42.3754311174,
        "lon" : -71.1114458017
      }
    },
    "lastUpdate" : "20141107T130521Z"
  }, {
    "type" : "place",
    "startTime" : "20141107T064557-0600",
    "endTime" : "20141107T074923-0600",
    "place" : {
      "id" : 103695223,
      "name" : "Spangler Center",
      "type" : "foursquare",
      "foursquareId" : "4aeee0b0f964a52081d421e3",
      "foursquareCategoryIds" : [ "4bf58dd8d48988d1ab941735" ],
      "location" : {
        "lat" : 42.36522543920124,
        "lon" : -71.12218458495514
      }
    },
    "lastUpdate" : "20141108T212147Z"
  }, {
    "type" : "place",
    "startTime" : "20141107T075415-0600",
    "endTime" : "20141107T115341-0600",
    "place" : {
      "id" : 84119446,
      "name" : "Aldrich Hall",
      "type" : "foursquare",
      "foursquareId" : "4ac64359f964a5206eb320e3",
      "foursquareCategoryIds" : [ "4bf58dd8d48988d198941735" ],
      "location" : {
        "lat" : 42.36578780710847,
        "lon" : -71.12210915179602
      }
    },
    "lastUpdate" : "20141217T041832Z"
  }, {
    "type" : "place",
    "startTime" : "20141107T120010-0600",
    "endTime" : "20141107T141222-0600",
    "place" : {
      "id" : 99453957,
      "name" : "Aldrich Hall",
      "type" : "foursquare",
      "foursquareId" : "4ac64359f964a5206eb320e3",
      "foursquareCategoryIds" : [ "4bf58dd8d48988d198941735" ],
      "location" : {
        "lat" : 42.36578780710847,
        "lon" : -71.12210915179602
      }
    },
    "lastUpdate" : "20141107T222042Z"
  }, {
    "type" : "place",
    "startTime" : "20141107T144244-0600",
    "endTime" : "20141107T153522-0600",
    "place" : {
      "id" : 10691553,
      "name" : "Floyd's 99 Barbershop",
      "type" : "foursquare",
      "foursquareId" : "4a9d711ff964a520443820e3",
      "foursquareCategoryIds" : [ "4bf58dd8d48988d110951735" ],
      "location" : {
        "lat" : 42.38213717937469,
        "lon" : -71.11979826
      }
    },
    "lastUpdate" : "20141107T222042Z"
  }, {
    "type" : "place",
    "startTime" : "20141107T155436-0600",
    "endTime" : "20141107T170013-0600",
    "place" : {
      "id" : 9869005,
      "name" : "Home",
      "type" : "home",
      "location" : {
        "lat" : 42.3754311174,
        "lon" : -71.1114458017
      }
    },
    "lastUpdate" : "20141107T235515Z"
  }, {
    "type" : "place",
    "startTime" : "20141107T171041-0600",
    "endTime" : "20141107T193659-0600",
    "place" : {
      "id" : 110264566,
      "name" : "Ethan Bernstein Home",
      "type" : "home",
      "location" : {
        "lat" : 42.3717835414,
        "lon" : -71.1130447028
      }
    },
    "lastUpdate" : "20141108T212119Z"
  }, {
    "type" : "place",
    "startTime" : "20141107T194842-0600",
    "endTime" : "20141108T000303-0600",
    "place" : {
      "id" : 110582799,
      "name" : "Tasty Burger",
      "type" : "foursquare",
      "foursquareId" : "50ce07b5e4b0ed7c4302d2bc",
      "foursquareCategoryIds" : [ "4bf58dd8d48988d16c941735" ],
      "location" : {
        "lat" : 42.37250286669323,
        "lon" : -71.12003183306106
      }
    },
    "lastUpdate" : "20141108T212052Z"
  } ],
  "lastUpdate" : "20141217T041832Z"
}, {
  "date" : "20141108",
  "segments" : [ {
    "type" : "place",
    "startTime" : "20141107T194842-0600",
    "endTime" : "20141108T000303-0600",
    "place" : {
      "id" : 110582799,
      "name" : "Tasty Burger",
      "type" : "foursquare",
      "foursquareId" : "50ce07b5e4b0ed7c4302d2bc",
      "foursquareCategoryIds" : [ "4bf58dd8d48988d16c941735" ],
      "location" : {
        "lat" : 42.37250286669323,
        "lon" : -71.12003183306106
      }
    },
    "lastUpdate" : "20141108T212052Z"
  }, {
    "type" : "place",
    "startTime" : "20141108T000938-0600",
    "endTime" : "20141108T012132-0600",
    "place" : {
      "id" : 99718554,
      "name" : "Daedalus",
      "type" : "foursquare",
      "foursquareId" : "44e1b94ff964a5201f371fe3",
      "foursquareCategoryIds" : [ "4bf58dd8d48988d1c4941735" ],
      "location" : {
        "lat" : 42.37134308090408,
        "lon" : -71.1165560717644
      }
    },
    "lastUpdate" : "20141108T165956Z"
  }, {
    "type" : "place",
    "startTime" : "20141108T012641-0600",
    "endTime" : "20141108T015143-0600",
    "place" : {
      "id" : 110264566,
      "name" : "Ethan Bernstein Home",
      "type" : "home",
      "location" : {
        "lat" : 42.3717835414,
        "lon" : -71.1130447028
      }
    },
    "lastUpdate" : "20141108T212119Z"
  }, {
    "type" : "place",
    "startTime" : "20141108T015818-0600",
    "endTime" : "20141108T153550-0600",
    "place" : {
      "id" : 9869005,
      "name" : "Home",
      "type" : "home",
      "location" : {
        "lat" : 42.3754311174,
        "lon" : -71.1114458017
      }
    },
    "lastUpdate" : "20141109T021003Z"
  }, {
    "type" : "place",
    "startTime" : "20141108T173102-0600",
    "endTime" : "20141108T203424-0600",
    "place" : {
      "id" : 110649044,
      "name" : "Showcase Providence Place & IMAX",
      "type" : "foursquare",
      "foursquareId" : "4b303561f964a520caf724e3",
      "foursquareCategoryIds" : [ "4bf58dd8d48988d180941735" ],
      "location" : {
        "lat" : 41.827683,
        "lon" : -71.415854
      }
    },
    "lastUpdate" : "20141112T035936Z"
  }, {
    "type" : "place",
    "startTime" : "20141108T204203-0600",
    "endTime" : "20141108T205103-0600",
    "place" : {
      "id" : 110667094,
      "type" : "unknown",
      "location" : {
        "lat" : 41.8288273381,
        "lon" : -71.4167024169
      }
    },
    "lastUpdate" : "20141109T051333Z"
  }, {
    "type" : "place",
    "startTime" : "20141108T205331-0600",
    "endTime" : "20141108T210325-0600",
    "place" : {
      "id" : 110667095,
      "type" : "unknown",
      "location" : {
        "lat" : 41.8279771792,
        "lon" : -71.4181449629
      }
    },
    "lastUpdate" : "20141109T051333Z"
  }, {
    "type" : "place",
    "startTime" : "20141108T221148-0600",
    "endTime" : "20141109T104229-0600",
    "place" : {
      "id" : 9869005,
      "name" : "Home",
      "type" : "home",
      "location" : {
        "lat" : 42.3754311174,
        "lon" : -71.1114458017
      }
    },
    "lastUpdate" : "20141109T175407Z"
  } ],
  "lastUpdate" : "20141112T035936Z"
}, {
  "date" : "20141109",
  "segments" : [ {
    "type" : "place",
    "startTime" : "20141108T221148-0600",
    "endTime" : "20141109T104229-0600",
    "place" : {
      "id" : 9869005,
      "name" : "Home",
      "type" : "home",
      "location" : {
        "lat" : 42.3754311174,
        "lon" : -71.1114458017
      }
    },
    "lastUpdate" : "20141109T175407Z"
  }, {
    "type" : "place",
    "startTime" : "20141109T105508-0600",
    "endTime" : "20141109T114550-0600",
    "place" : {
      "id" : 22029405,
      "name" : "Park",
      "type" : "foursquare",
      "foursquareId" : "4f7c8902e4b032c26c6798db",
      "foursquareCategoryIds" : [ "4bf58dd8d48988d155941735" ],
      "location" : {
        "lat" : 42.37169409933257,
        "lon" : -71.12097185013617
      }
    },
    "lastUpdate" : "20141112T035927Z"
  }, {
    "type" : "place",
    "startTime" : "20141109T115827-0600",
    "endTime" : "20141110T063746-0600",
    "place" : {
      "id" : 9869005,
      "name" : "Home",
      "type" : "home",
      "location" : {
        "lat" : 42.3754311174,
        "lon" : -71.1114458017
      }
    },
    "lastUpdate" : "20141110T141402Z"
  } ],
  "lastUpdate" : "20141112T035927Z"
}, {
  "date" : "20141110",
  "segments" : [ {
    "type" : "place",
    "startTime" : "20141109T115827-0600",
    "endTime" : "20141110T063746-0600",
    "place" : {
      "id" : 9869005,
      "name" : "Home",
      "type" : "home",
      "location" : {
        "lat" : 42.3754311174,
        "lon" : -71.1114458017
      }
    },
    "lastUpdate" : "20141110T141402Z"
  }, {
    "type" : "place",
    "startTime" : "20141110T070155-0600",
    "endTime" : "20141110T111434-0600",
    "place" : {
      "id" : 84119446,
      "name" : "Aldrich Hall",
      "type" : "foursquare",
      "foursquareId" : "4ac64359f964a5206eb320e3",
      "foursquareCategoryIds" : [ "4bf58dd8d48988d198941735" ],
      "location" : {
        "lat" : 42.36578780710847,
        "lon" : -71.12210915179602
      }
    },
    "lastUpdate" : "20141217T041832Z"
  }, {
    "type" : "place",
    "startTime" : "20141110T114536-0600",
    "endTime" : "20141110T175944-0600",
    "place" : {
      "id" : 9869005,
      "name" : "Home",
      "type" : "home",
      "location" : {
        "lat" : 42.3754311174,
        "lon" : -71.1114458017
      }
    },
    "lastUpdate" : "20141111T005751Z"
  }, {
    "type" : "place",
    "startTime" : "20141110T181250-0600",
    "endTime" : "20141110T223344-0600",
    "place" : {
      "id" : 110582799,
      "name" : "Tasty Burger",
      "type" : "foursquare",
      "foursquareId" : "50ce07b5e4b0ed7c4302d2bc",
      "foursquareCategoryIds" : [ "4bf58dd8d48988d16c941735" ],
      "location" : {
        "lat" : 42.37250286669323,
        "lon" : -71.12003183306106
      }
    },
    "lastUpdate" : "20141112T035918Z"
  }, {
    "type" : "place",
    "startTime" : "20141110T224721-0600",
    "endTime" : "20141111T130337-0600",
    "place" : {
      "id" : 9869005,
      "name" : "Home",
      "type" : "home",
      "location" : {
        "lat" : 42.3754311174,
        "lon" : -71.1114458017
      }
    },
    "lastUpdate" : "20141112T015100Z"
  } ],
  "lastUpdate" : "20141217T041832Z"
}, {
  "date" : "20141111",
  "segments" : [ {
    "type" : "place",
    "startTime" : "20141110T224721-0600",
    "endTime" : "20141111T130337-0600",
    "place" : {
      "id" : 9869005,
      "name" : "Home",
      "type" : "home",
      "location" : {
        "lat" : 42.3754311174,
        "lon" : -71.1114458017
      }
    },
    "lastUpdate" : "20141112T015100Z"
  }, {
    "type" : "place",
    "startTime" : "20141111T132913-0600",
    "endTime" : "20141111T140405-0600",
    "place" : {
      "id" : 45952503,
      "name" : "Michaels",
      "type" : "foursquare",
      "foursquareId" : "505dbfcee4b02c96b410cb99",
      "foursquareCategoryIds" : [ "4bf58dd8d48988d127951735" ],
      "location" : {
        "lat" : 42.389114,
        "lon" : -71.117966
      }
    },
    "lastUpdate" : "20141112T040009Z"
  }, {
    "type" : "place",
    "startTime" : "20141111T142816-0600",
    "endTime" : "20141111T212730-0600",
    "place" : {
      "id" : 9869005,
      "name" : "Home",
      "type" : "home",
      "location" : {
        "lat" : 42.3754311174,
        "lon" : -71.1114458017
      }
    },
    "lastUpdate" : "20141112T055522Z"
  }, {
    "type" : "place",
    "startTime" : "20141111T214548-0600",
    "endTime" : "20141112T064357-0600",
    "place" : {
      "id" : 9869005,
      "name" : "Home",
      "type" : "home",
      "location" : {
        "lat" : 42.3754311174,
        "lon" : -71.1114458017
      }
    },
    "lastUpdate" : "20141112T134751Z"
  } ],
  "lastUpdate" : "20141112T134751Z"
}, {
  "date" : "20141112",
  "segments" : [ {
    "type" : "place",
    "startTime" : "20141111T214548-0600",
    "endTime" : "20141112T064357-0600",
    "place" : {
      "id" : 9869005,
      "name" : "Home",
      "type" : "home",
      "location" : {
        "lat" : 42.3754311174,
        "lon" : -71.1114458017
      }
    },
    "lastUpdate" : "20141112T134751Z"
  }, {
    "type" : "place",
    "startTime" : "20141112T070901-0600",
    "endTime" : "20141112T075635-0600",
    "place" : {
      "id" : 10115332,
      "name" : "Spangler Center",
      "type" : "foursquare",
      "foursquareId" : "4aeee0b0f964a52081d421e3",
      "foursquareCategoryIds" : [ "4bf58dd8d48988d1ab941735" ],
      "location" : {
        "lat" : 42.36522543920124,
        "lon" : -71.12218458495514
      }
    },
    "lastUpdate" : "20141129T021506Z"
  }, {
    "type" : "place",
    "startTime" : "20141112T080101-0600",
    "endTime" : "20141112T152557-0600",
    "place" : {
      "id" : 84119446,
      "name" : "Aldrich Hall",
      "type" : "foursquare",
      "foursquareId" : "4ac64359f964a5206eb320e3",
      "foursquareCategoryIds" : [ "4bf58dd8d48988d198941735" ],
      "location" : {
        "lat" : 42.36578780710847,
        "lon" : -71.12210915179602
      }
    },
    "lastUpdate" : "20141217T041832Z"
  }, {
    "type" : "place",
    "startTime" : "20141112T165340-0600",
    "endTime" : "20141112T175255-0600",
    "place" : {
      "id" : 82803313,
      "name" : "Impact Hub Boston",
      "type" : "foursquare",
      "foursquareId" : "535ef432498eb46f6389ecf5",
      "foursquareCategoryIds" : [ "52e81612bcbc57f1066b7a34" ],
      "location" : {
        "lat" : 42.3568123867606,
        "lon" : -71.05773051318191
      }
    },
    "lastUpdate" : "20141129T021518Z"
  }, {
    "type" : "place",
    "startTime" : "20141112T175533-0600",
    "endTime" : "20141112T180933-0600",
    "place" : {
      "id" : 82803313,
      "name" : "Impact Hub Boston",
      "type" : "foursquare",
      "foursquareId" : "535ef432498eb46f6389ecf5",
      "foursquareCategoryIds" : [ "52e81612bcbc57f1066b7a34" ],
      "location" : {
        "lat" : 42.3568123867606,
        "lon" : -71.05773051318191
      }
    },
    "lastUpdate" : "20141129T021518Z"
  }, {
    "type" : "place",
    "startTime" : "20141112T182916-0600",
    "endTime" : "20141112T190451-0600",
    "place" : {
      "id" : 84119446,
      "name" : "Aldrich Hall",
      "type" : "foursquare",
      "foursquareId" : "4ac64359f964a5206eb320e3",
      "foursquareCategoryIds" : [ "4bf58dd8d48988d198941735" ],
      "location" : {
        "lat" : 42.36578780710847,
        "lon" : -71.12210915179602
      }
    },
    "lastUpdate" : "20141129T021546Z"
  }, {
    "type" : "place",
    "startTime" : "20141112T190946-0600",
    "endTime" : "20141112T201846-0600",
    "place" : {
      "id" : 115780827,
      "name" : "Morris Hall",
      "type" : "foursquare",
      "foursquareId" : "4b9530acf964a520eb9334e3",
      "foursquareCategoryIds" : [ "4bf58dd8d48988d1a3941735" ],
      "location" : {
        "lat" : 42.36767987045432,
        "lon" : -71.12391374116594
      }
    },
    "lastUpdate" : "20141129T021539Z"
  }, {
    "type" : "place",
    "startTime" : "20141112T203517-0600",
    "endTime" : "20141112T230846-0600",
    "place" : {
      "id" : 10042715,
      "name" : "Border Cafe",
      "type" : "foursquare",
      "foursquareId" : "3fd66200f964a520bded1ee3",
      "foursquareCategoryIds" : [ "4bf58dd8d48988d1c1941735", "4bf58dd8d48988d17a941735" ],
      "location" : {
        "lat" : 42.3743468,
        "lon" : -71.120141
      }
    },
    "lastUpdate" : "20141113T153953Z"
  }, {
    "type" : "place",
    "startTime" : "20141112T232330-0600",
    "endTime" : "20141113T064257-0600",
    "place" : {
      "id" : 9869005,
      "name" : "Home",
      "type" : "home",
      "location" : {
        "lat" : 42.3754311174,
        "lon" : -71.1114458017
      }
    },
    "lastUpdate" : "20141113T143817Z"
  } ],
  "lastUpdate" : "20141217T041832Z"
}, {
  "date" : "20141113",
  "segments" : [ {
    "type" : "place",
    "startTime" : "20141112T232330-0600",
    "endTime" : "20141113T064257-0600",
    "place" : {
      "id" : 9869005,
      "name" : "Home",
      "type" : "home",
      "location" : {
        "lat" : 42.3754311174,
        "lon" : -71.1114458017
      }
    },
    "lastUpdate" : "20141113T143817Z"
  }, {
    "type" : "place",
    "startTime" : "20141113T070505-0600",
    "endTime" : "20141113T111642-0600",
    "place" : {
      "id" : 84119446,
      "name" : "Aldrich Hall",
      "type" : "foursquare",
      "foursquareId" : "4ac64359f964a5206eb320e3",
      "foursquareCategoryIds" : [ "4bf58dd8d48988d198941735" ],
      "location" : {
        "lat" : 42.36578780710847,
        "lon" : -71.12210915179602
      }
    },
    "lastUpdate" : "20141217T041832Z"
  }, {
    "type" : "place",
    "startTime" : "20141113T113948-0600",
    "endTime" : "20141113T121538-0600",
    "place" : {
      "id" : 9869005,
      "name" : "Home",
      "type" : "home",
      "location" : {
        "lat" : 42.3754311174,
        "lon" : -71.1114458017
      }
    },
    "lastUpdate" : "20141113T202315Z"
  }, {
    "type" : "place",
    "startTime" : "20141113T122620-0600",
    "endTime" : "20141113T130204-0600",
    "place" : {
      "id" : 83673517,
      "name" : "Petsi Pies",
      "type" : "foursquare",
      "foursquareId" : "49f9f896f964a5209f6d1fe3",
      "foursquareCategoryIds" : [ "4bf58dd8d48988d1e0931735" ],
      "location" : {
        "lat" : 42.36892873750989,
        "lon" : -71.11353635787964
      }
    },
    "lastUpdate" : "20141113T202315Z"
  }, {
    "type" : "place",
    "startTime" : "20141113T131337-0600",
    "endTime" : "20141114T065116-0600",
    "place" : {
      "id" : 9869005,
      "name" : "Home",
      "type" : "home",
      "location" : {
        "lat" : 42.3754311174,
        "lon" : -71.1114458017
      }
    },
    "lastUpdate" : "20141114T160347Z"
  } ],
  "lastUpdate" : "20141217T041832Z"
}, {
  "date" : "20141114",
  "segments" : [ {
    "type" : "place",
    "startTime" : "20141113T131337-0600",
    "endTime" : "20141114T065116-0600",
    "place" : {
      "id" : 9869005,
      "name" : "Home",
      "type" : "home",
      "location" : {
        "lat" : 42.3754311174,
        "lon" : -71.1114458017
      }
    },
    "lastUpdate" : "20141114T160347Z"
  }, {
    "type" : "place",
    "startTime" : "20141114T070600-0600",
    "endTime" : "20141114T075452-0600",
    "place" : {
      "id" : 10115332,
      "name" : "Spangler Center",
      "type" : "foursquare",
      "foursquareId" : "4aeee0b0f964a52081d421e3",
      "foursquareCategoryIds" : [ "4bf58dd8d48988d1ab941735" ],
      "location" : {
        "lat" : 42.36522543920124,
        "lon" : -71.12218458495514
      }
    },
    "lastUpdate" : "20141129T021506Z"
  }, {
    "type" : "place",
    "startTime" : "20141114T075825-0600",
    "endTime" : "20141114T092203-0600",
    "place" : {
      "id" : 87938770,
      "name" : "Harvard Innovation Lab",
      "type" : "foursquare",
      "foursquareId" : "4e5d4676ae60839ea2e29e64",
      "foursquareCategoryIds" : [ "4bf58dd8d48988d19f941735" ],
      "location" : {
        "lat" : 42.36427488545988,
        "lon" : -71.12402979165076
      }
    },
    "lastUpdate" : "20141114T160347Z"
  }, {
    "type" : "place",
    "startTime" : "20141114T092928-0600",
    "endTime" : "20141114T161806-0600",
    "place" : {
      "id" : 84119446,
      "name" : "Aldrich Hall",
      "type" : "foursquare",
      "foursquareId" : "4ac64359f964a5206eb320e3",
      "foursquareCategoryIds" : [ "4bf58dd8d48988d198941735" ],
      "location" : {
        "lat" : 42.36578780710847,
        "lon" : -71.12210915179602
      }
    },
    "lastUpdate" : "20141217T041832Z"
  }, {
    "type" : "place",
    "startTime" : "20141114T162228-0600",
    "endTime" : "20141114T172244-0600",
    "place" : {
      "id" : 94143591,
      "name" : "Morgan Hall",
      "type" : "foursquare",
      "foursquareId" : "4adf6b74f964a520697a21e3",
      "foursquareCategoryIds" : [ "4bf58dd8d48988d197941735" ],
      "location" : {
        "lat" : 42.36670606297722,
        "lon" : -71.1239079386408
      }
    },
    "lastUpdate" : "20141129T021525Z"
  }, {
    "type" : "place",
    "startTime" : "20141114T173548-0600",
    "endTime" : "20141114T184548-0600",
    "place" : {
      "id" : 10042715,
      "name" : "Border Cafe",
      "type" : "foursquare",
      "foursquareId" : "3fd66200f964a520bded1ee3",
      "foursquareCategoryIds" : [ "4bf58dd8d48988d1c1941735", "4bf58dd8d48988d17a941735" ],
      "location" : {
        "lat" : 42.3743468,
        "lon" : -71.120141
      }
    },
    "lastUpdate" : "20141115T213935Z"
  }, {
    "type" : "place",
    "startTime" : "20141114T185725-0600",
    "endTime" : "20141114T203303-0600",
    "place" : {
      "id" : 9869005,
      "name" : "Home",
      "type" : "home",
      "location" : {
        "lat" : 42.3754311174,
        "lon" : -71.1114458017
      }
    },
    "lastUpdate" : "20141115T213935Z"
  }, {
    "type" : "place",
    "startTime" : "20141114T204526-0600",
    "endTime" : "20141114T234159-0600",
    "place" : {
      "id" : 112615905,
      "name" : "Kathryn Rathje",
      "type" : "home",
      "location" : {
        "lat" : 42.3686100067,
        "lon" : -71.112980002
      }
    },
    "lastUpdate" : "20141116T060908Z"
  }, {
    "type" : "place",
    "startTime" : "20141114T234916-0600",
    "endTime" : "20141115T010638-0600",
    "place" : {
      "id" : 22762925,
      "name" : "Hong Kong",
      "type" : "foursquare",
      "foursquareId" : "40b28c80f964a52036f81ee3",
      "foursquareCategoryIds" : [ "4bf58dd8d48988d145941735" ],
      "location" : {
        "lat" : 42.372426,
        "lon" : -71.11595
      }
    },
    "lastUpdate" : "20141115T213935Z"
  } ],
  "lastUpdate" : "20141217T041832Z"
}, {
  "date" : "20141115",
  "segments" : [ {
    "type" : "place",
    "startTime" : "20141114T234916-0600",
    "endTime" : "20141115T010638-0600",
    "place" : {
      "id" : 22762925,
      "name" : "Hong Kong",
      "type" : "foursquare",
      "foursquareId" : "40b28c80f964a52036f81ee3",
      "foursquareCategoryIds" : [ "4bf58dd8d48988d145941735" ],
      "location" : {
        "lat" : 42.372426,
        "lon" : -71.11595
      }
    },
    "lastUpdate" : "20141115T213935Z"
  }, {
    "type" : "place",
    "startTime" : "20141115T011348-0600",
    "endTime" : "20141115T011939-0600",
    "place" : {
      "id" : 112472308,
      "type" : "unknown",
      "location" : {
        "lat" : 42.3707082559,
        "lon" : -71.1109832371
      }
    },
    "lastUpdate" : "20141115T213935Z"
  }, {
    "type" : "place",
    "startTime" : "20141115T012853-0600",
    "endTime" : "20141115T131430-0600",
    "place" : {
      "id" : 9869005,
      "name" : "Home",
      "type" : "home",
      "location" : {
        "lat" : 42.3754311174,
        "lon" : -71.1114458017
      }
    },
    "lastUpdate" : "20141115T213935Z"
  }, {
    "type" : "place",
    "startTime" : "20141115T132507-0600",
    "endTime" : "20141115T153258-0600",
    "place" : {
      "id" : 112615960,
      "name" : "Chameleon Tattoo and Body Piercing",
      "type" : "foursquare",
      "foursquareId" : "4afdc0dff964a520902a22e3",
      "foursquareCategoryIds" : [ "4bf58dd8d48988d1de931735" ],
      "location" : {
        "lat" : 42.3725749083216,
        "lon" : -71.11967325210571
      }
    },
    "lastUpdate" : "20141116T060927Z"
  }, {
    "type" : "place",
    "startTime" : "20141115T154149-0600",
    "endTime" : "20141115T172902-0600",
    "place" : {
      "id" : 9869005,
      "name" : "Home",
      "type" : "home",
      "location" : {
        "lat" : 42.3754311174,
        "lon" : -71.1114458017
      }
    },
    "lastUpdate" : "20141116T004848Z"
  }, {
    "type" : "place",
    "startTime" : "20141115T174057-0600",
    "endTime" : "20141115T194938-0600",
    "place" : {
      "id" : 9869005,
      "name" : "Home",
      "type" : "home",
      "location" : {
        "lat" : 42.3754311174,
        "lon" : -71.1114458017
      }
    },
    "lastUpdate" : "20141116T022259Z"
  }, {
    "type" : "place",
    "startTime" : "20141115T200614-0600",
    "endTime" : "20141115T234223-0600",
    "place" : {
      "id" : 112571808,
      "name" : "Cole Shelton Home",
      "type" : "home",
      "location" : {
        "lat" : 42.3658757609,
        "lon" : -71.1006331544
      }
    },
    "lastUpdate" : "20141116T074338Z"
  }, {
    "type" : "place",
    "startTime" : "20141115T235753-0600",
    "endTime" : "20141117T063231-0600",
    "place" : {
      "id" : 9869005,
      "name" : "Home",
      "type" : "home",
      "location" : {
        "lat" : 42.3754311174,
        "lon" : -71.1114458017
      }
    },
    "lastUpdate" : "20141118T130025Z"
  } ],
  "lastUpdate" : "20141118T130025Z"
}, {
  "date" : "20141116",
  "segments" : [ {
    "type" : "place",
    "startTime" : "20141115T235753-0600",
    "endTime" : "20141117T063231-0600",
    "place" : {
      "id" : 9869005,
      "name" : "Home",
      "type" : "home",
      "location" : {
        "lat" : 42.3754311174,
        "lon" : -71.1114458017
      }
    },
    "lastUpdate" : "20141118T130025Z"
  } ],
  "lastUpdate" : "20141118T130025Z"
}, {
  "date" : "20141117",
  "segments" : [ {
    "type" : "place",
    "startTime" : "20141115T235753-0600",
    "endTime" : "20141117T063231-0600",
    "place" : {
      "id" : 9869005,
      "name" : "Home",
      "type" : "home",
      "location" : {
        "lat" : 42.3754311174,
        "lon" : -71.1114458017
      }
    },
    "lastUpdate" : "20141118T130025Z"
  }, {
    "type" : "place",
    "startTime" : "20141117T065403-0600",
    "endTime" : "20141117T135123-0600",
    "place" : {
      "id" : 84119446,
      "name" : "Aldrich Hall",
      "type" : "foursquare",
      "foursquareId" : "4ac64359f964a5206eb320e3",
      "foursquareCategoryIds" : [ "4bf58dd8d48988d198941735" ],
      "location" : {
        "lat" : 42.36578780710847,
        "lon" : -71.12210915179602
      }
    },
    "lastUpdate" : "20141217T041832Z"
  }, {
    "type" : "place",
    "startTime" : "20141117T141251-0600",
    "endTime" : "20141117T142213-0600",
    "place" : {
      "id" : 9869004,
      "name" : "Broadway Marketplace",
      "type" : "foursquare",
      "foursquareId" : "4a661612f964a520ffc71fe3",
      "foursquareCategoryIds" : [ "4bf58dd8d48988d118951735", "4bf58dd8d48988d1f5941735" ],
      "location" : {
        "lat" : 42.37405171427381,
        "lon" : -71.11300484548056
      }
    },
    "lastUpdate" : "20141118T130025Z"
  }, {
    "type" : "place",
    "startTime" : "20141117T142646-0600",
    "endTime" : "20141117T144321-0600",
    "place" : {
      "id" : 9869005,
      "name" : "Home",
      "type" : "home",
      "location" : {
        "lat" : 42.3754311174,
        "lon" : -71.1114458017
      }
    },
    "lastUpdate" : "20141118T143336Z"
  } ],
  "lastUpdate" : "20141217T041832Z"
}, {
  "date" : "20141118",
  "segments" : [ {
    "type" : "place",
    "startTime" : "20141118T070029-0600",
    "endTime" : "20141118T080305-0600",
    "place" : {
      "id" : 10115332,
      "name" : "Spangler Center",
      "type" : "foursquare",
      "foursquareId" : "4aeee0b0f964a52081d421e3",
      "foursquareCategoryIds" : [ "4bf58dd8d48988d1ab941735" ],
      "location" : {
        "lat" : 42.36522543920124,
        "lon" : -71.12218458495514
      }
    },
    "lastUpdate" : "20141129T021450Z"
  }, {
    "type" : "place",
    "startTime" : "20141118T080724-0600",
    "endTime" : "20141118T114322-0600",
    "place" : {
      "id" : 84119446,
      "name" : "Aldrich Hall",
      "type" : "foursquare",
      "foursquareId" : "4ac64359f964a5206eb320e3",
      "foursquareCategoryIds" : [ "4bf58dd8d48988d198941735" ],
      "location" : {
        "lat" : 42.36578780710847,
        "lon" : -71.12210915179602
      }
    },
    "lastUpdate" : "20141217T041832Z"
  }, {
    "type" : "place",
    "startTime" : "20141118T115345-0600",
    "endTime" : "20141118T134205-0600",
    "place" : {
      "id" : 11237847,
      "name" : "Harvard Innovation Lab",
      "type" : "foursquare",
      "foursquareId" : "4e5d4676ae60839ea2e29e64",
      "foursquareCategoryIds" : [ "4bf58dd8d48988d19f941735" ],
      "location" : {
        "lat" : 42.36403242532342,
        "lon" : -71.12407621183526
      }
    },
    "lastUpdate" : "20141129T021229Z"
  }, {
    "type" : "place",
    "startTime" : "20141118T140720-0600",
    "endTime" : "20141118T154530-0600",
    "place" : {
      "id" : 9869005,
      "name" : "Home",
      "type" : "home",
      "location" : {
        "lat" : 42.3754311174,
        "lon" : -71.1114458017
      }
    },
    "lastUpdate" : "20141118T235034Z"
  }, {
    "type" : "place",
    "startTime" : "20141118T155516-0600",
    "endTime" : "20141118T190629-0600",
    "place" : {
      "id" : 27795038,
      "name" : "Orinoco",
      "type" : "foursquare",
      "foursquareId" : "4f106cace4b072565b8bd1b6",
      "foursquareCategoryIds" : [ "4bf58dd8d48988d152941735" ],
      "location" : {
        "lat" : 42.37190996862827,
        "lon" : -71.12049603929978
      }
    },
    "lastUpdate" : "20141217T041854Z"
  }, {
    "type" : "place",
    "startTime" : "20141118T192337-0600",
    "endTime" : "20141119T062715-0600",
    "place" : {
      "id" : 9869005,
      "name" : "Home",
      "type" : "home",
      "location" : {
        "lat" : 42.3754311174,
        "lon" : -71.1114458017
      }
    },
    "lastUpdate" : "20141119T135215Z"
  } ],
  "lastUpdate" : "20141217T041854Z"
}, {
  "date" : "20141119",
  "segments" : [ {
    "type" : "place",
    "startTime" : "20141118T192337-0600",
    "endTime" : "20141119T062715-0600",
    "place" : {
      "id" : 9869005,
      "name" : "Home",
      "type" : "home",
      "location" : {
        "lat" : 42.3754311174,
        "lon" : -71.1114458017
      }
    },
    "lastUpdate" : "20141119T135215Z"
  }, {
    "type" : "place",
    "startTime" : "20141119T065227-0600",
    "endTime" : "20141119T075640-0600",
    "place" : {
      "id" : 10115332,
      "name" : "Spangler Center",
      "type" : "foursquare",
      "foursquareId" : "4aeee0b0f964a52081d421e3",
      "foursquareCategoryIds" : [ "4bf58dd8d48988d1ab941735" ],
      "location" : {
        "lat" : 42.36522543920124,
        "lon" : -71.12218458495514
      }
    },
    "lastUpdate" : "20141129T021418Z"
  }, {
    "type" : "place",
    "startTime" : "20141119T080133-0600",
    "endTime" : "20141119T121738-0600",
    "place" : {
      "id" : 84119446,
      "name" : "Aldrich Hall",
      "type" : "foursquare",
      "foursquareId" : "4ac64359f964a5206eb320e3",
      "foursquareCategoryIds" : [ "4bf58dd8d48988d198941735" ],
      "location" : {
        "lat" : 42.36578780710847,
        "lon" : -71.12210915179602
      }
    },
    "lastUpdate" : "20141217T041832Z"
  }, {
    "type" : "place",
    "startTime" : "20141119T122731-0600",
    "endTime" : "20141119T134523-0600",
    "place" : {
      "id" : 11237847,
      "name" : "Harvard Innovation Lab",
      "type" : "foursquare",
      "foursquareId" : "4e5d4676ae60839ea2e29e64",
      "foursquareCategoryIds" : [ "4bf58dd8d48988d19f941735" ],
      "location" : {
        "lat" : 42.36403242532342,
        "lon" : -71.12407621183526
      }
    },
    "lastUpdate" : "20141129T021229Z"
  }, {
    "type" : "place",
    "startTime" : "20141119T140132-0600",
    "endTime" : "20141119T143529-0600",
    "place" : {
      "id" : 10042714,
      "name" : "Harvard Alumni Association",
      "type" : "foursquare",
      "foursquareId" : "4b5dc68df964a520026b29e3",
      "foursquareCategoryIds" : [ "4bf58dd8d48988d1ae941735" ],
      "location" : {
        "lat" : 42.37317592010315,
        "lon" : -71.12325225275964
      }
    },
    "lastUpdate" : "20141119T231651Z"
  }, {
    "type" : "place",
    "startTime" : "20141119T144104-0600",
    "endTime" : "20141119T160611-0600",
    "place" : {
      "id" : 66726399,
      "name" : "Richard A. & Susan F. Smith Campus Center (fka Holyoke Center)",
      "type" : "foursquare",
      "foursquareId" : "4b01556af964a5201e4222e3",
      "foursquareCategoryIds" : [ "4bf58dd8d48988d197941735" ],
      "location" : {
        "lat" : 42.37272429096316,
        "lon" : -71.11859279030334
      }
    },
    "lastUpdate" : "20141129T021442Z"
  }, {
    "type" : "place",
    "startTime" : "20141119T161747-0600",
    "endTime" : "20141119T162344-0600",
    "place" : {
      "id" : 9869004,
      "name" : "Broadway Marketplace",
      "type" : "foursquare",
      "foursquareId" : "4a661612f964a520ffc71fe3",
      "foursquareCategoryIds" : [ "4bf58dd8d48988d118951735", "4bf58dd8d48988d1f5941735" ],
      "location" : {
        "lat" : 42.37405171427381,
        "lon" : -71.11300484548056
      }
    },
    "lastUpdate" : "20141119T231651Z"
  }, {
    "type" : "place",
    "startTime" : "20141119T162921-0600",
    "endTime" : "20141120T065525-0600",
    "place" : {
      "id" : 9869005,
      "name" : "Home",
      "type" : "home",
      "location" : {
        "lat" : 42.3754311174,
        "lon" : -71.1114458017
      }
    },
    "lastUpdate" : "20141120T144848Z"
  } ],
  "lastUpdate" : "20141217T041832Z"
}, {
  "date" : "20141120",
  "segments" : [ {
    "type" : "place",
    "startTime" : "20141119T162921-0600",
    "endTime" : "20141120T065525-0600",
    "place" : {
      "id" : 9869005,
      "name" : "Home",
      "type" : "home",
      "location" : {
        "lat" : 42.3754311174,
        "lon" : -71.1114458017
      }
    },
    "lastUpdate" : "20141120T144848Z"
  }, {
    "type" : "place",
    "startTime" : "20141120T071607-0600",
    "endTime" : "20141120T075732-0600",
    "place" : {
      "id" : 10115332,
      "name" : "Spangler Center",
      "type" : "foursquare",
      "foursquareId" : "4aeee0b0f964a52081d421e3",
      "foursquareCategoryIds" : [ "4bf58dd8d48988d1ab941735" ],
      "location" : {
        "lat" : 42.36522543920124,
        "lon" : -71.12218458495514
      }
    },
    "lastUpdate" : "20141129T021346Z"
  }, {
    "type" : "place",
    "startTime" : "20141120T080637-0600",
    "endTime" : "20141120T112159-0600",
    "place" : {
      "id" : 84119446,
      "name" : "Aldrich Hall",
      "type" : "foursquare",
      "foursquareId" : "4ac64359f964a5206eb320e3",
      "foursquareCategoryIds" : [ "4bf58dd8d48988d198941735" ],
      "location" : {
        "lat" : 42.36578780710847,
        "lon" : -71.12210915179602
      }
    },
    "lastUpdate" : "20141217T041832Z"
  }, {
    "type" : "place",
    "startTime" : "20141120T113053-0600",
    "endTime" : "20141120T130626-0600",
    "place" : {
      "id" : 87938770,
      "name" : "Harvard Innovation Lab",
      "type" : "foursquare",
      "foursquareId" : "4e5d4676ae60839ea2e29e64",
      "foursquareCategoryIds" : [ "4bf58dd8d48988d19f941735" ],
      "location" : {
        "lat" : 42.36427488545988,
        "lon" : -71.12402979165076
      }
    },
    "lastUpdate" : "20141120T205529Z"
  }, {
    "type" : "place",
    "startTime" : "20141120T133125-0600",
    "endTime" : "20141120T141232-0600",
    "place" : {
      "id" : 29278580,
      "name" : "Wasserstein Hall",
      "type" : "foursquare",
      "foursquareId" : "4e3342d8227111ae768cc7dc",
      "foursquareCategoryIds" : [ "4bf58dd8d48988d198941735" ],
      "location" : {
        "lat" : 42.37888285158866,
        "lon" : -71.11904539301803
      }
    },
    "lastUpdate" : "20141129T021410Z"
  }, {
    "type" : "place",
    "startTime" : "20141120T142847-0600",
    "endTime" : "20141120T214043-0600",
    "place" : {
      "id" : 9869005,
      "name" : "Home",
      "type" : "home",
      "location" : {
        "lat" : 42.3754311174,
        "lon" : -71.1114458017
      }
    },
    "lastUpdate" : "20141121T043507Z"
  }, {
    "type" : "place",
    "startTime" : "20141120T215512-0600",
    "endTime" : "20141121T063349-0600",
    "place" : {
      "id" : 9869005,
      "name" : "Home",
      "type" : "home",
      "location" : {
        "lat" : 42.3754311174,
        "lon" : -71.1114458017
      }
    },
    "lastUpdate" : "20141121T154249Z"
  } ],
  "lastUpdate" : "20141217T041832Z"
}, {
  "date" : "20141121",
  "segments" : [ {
    "type" : "place",
    "startTime" : "20141120T215512-0600",
    "endTime" : "20141121T063349-0600",
    "place" : {
      "id" : 9869005,
      "name" : "Home",
      "type" : "home",
      "location" : {
        "lat" : 42.3754311174,
        "lon" : -71.1114458017
      }
    },
    "lastUpdate" : "20141121T154249Z"
  }, {
    "type" : "place",
    "startTime" : "20141121T065224-0600",
    "endTime" : "20141121T075641-0600",
    "place" : {
      "id" : 11237847,
      "name" : "Harvard Innovation Lab",
      "type" : "foursquare",
      "foursquareId" : "4e5d4676ae60839ea2e29e64",
      "foursquareCategoryIds" : [ "4bf58dd8d48988d19f941735" ],
      "location" : {
        "lat" : 42.36403242532342,
        "lon" : -71.12407621183526
      }
    },
    "lastUpdate" : "20141129T021229Z"
  }, {
    "type" : "place",
    "startTime" : "20141121T075924-0600",
    "endTime" : "20141121T111758-0600",
    "place" : {
      "id" : 84119446,
      "name" : "Aldrich Hall",
      "type" : "foursquare",
      "foursquareId" : "4ac64359f964a5206eb320e3",
      "foursquareCategoryIds" : [ "4bf58dd8d48988d198941735" ],
      "location" : {
        "lat" : 42.36578780710847,
        "lon" : -71.12210915179602
      }
    },
    "lastUpdate" : "20141217T041832Z"
  }, {
    "type" : "place",
    "startTime" : "20141121T112447-0600",
    "endTime" : "20141121T121546-0600",
    "place" : {
      "id" : 94143591,
      "name" : "Morgan Hall",
      "type" : "foursquare",
      "foursquareId" : "4adf6b74f964a520697a21e3",
      "foursquareCategoryIds" : [ "4bf58dd8d48988d197941735" ],
      "location" : {
        "lat" : 42.36670606297722,
        "lon" : -71.1239079386408
      }
    },
    "lastUpdate" : "20141129T021525Z"
  }, {
    "type" : "place",
    "startTime" : "20141121T122157-0600",
    "endTime" : "20141121T151000-0600",
    "place" : {
      "id" : 10115332,
      "name" : "Spangler Center",
      "type" : "foursquare",
      "foursquareId" : "4aeee0b0f964a52081d421e3",
      "foursquareCategoryIds" : [ "4bf58dd8d48988d1ab941735" ],
      "location" : {
        "lat" : 42.36522543920124,
        "lon" : -71.12218458495514
      }
    },
    "lastUpdate" : "20141129T021506Z"
  }, {
    "type" : "place",
    "startTime" : "20141121T152222-0600",
    "endTime" : "20141121T153404-0600",
    "place" : {
      "id" : 22029405,
      "name" : "Park",
      "type" : "foursquare",
      "foursquareId" : "4f7c8902e4b032c26c6798db",
      "foursquareCategoryIds" : [ "4bf58dd8d48988d155941735" ],
      "location" : {
        "lat" : 42.37169409933257,
        "lon" : -71.12097185013617
      }
    },
    "lastUpdate" : "20141129T021242Z"
  }, {
    "type" : "place",
    "startTime" : "20141121T153847-0600",
    "endTime" : "20141121T155142-0600",
    "place" : {
      "id" : 96191347,
      "name" : "Starbucks",
      "type" : "foursquare",
      "foursquareId" : "4dd83669fa76ad96d1393abf",
      "foursquareCategoryIds" : [ "4bf58dd8d48988d1e0931735" ],
      "location" : {
        "lat" : 42.373336,
        "lon" : -71.119244
      }
    },
    "lastUpdate" : "20141129T021335Z"
  }, {
    "type" : "place",
    "startTime" : "20141121T155939-0600",
    "endTime" : "20141121T183549-0600",
    "place" : {
      "id" : 22029405,
      "name" : "Park",
      "type" : "foursquare",
      "foursquareId" : "4f7c8902e4b032c26c6798db",
      "foursquareCategoryIds" : [ "4bf58dd8d48988d155941735" ],
      "location" : {
        "lat" : 42.37169409933257,
        "lon" : -71.12097185013617
      }
    },
    "lastUpdate" : "20141129T021321Z"
  }, {
    "type" : "place",
    "startTime" : "20141121T184944-0600",
    "endTime" : "20141121T213801-0600",
    "place" : {
      "id" : 115780396,
      "name" : "Lord Hobo",
      "type" : "foursquare",
      "foursquareId" : "4afd89c6f964a520692822e3",
      "foursquareCategoryIds" : [ "4bf58dd8d48988d155941735" ],
      "location" : {
        "lat" : 42.368748,
        "lon" : -71.094817
      }
    },
    "lastUpdate" : "20141129T021312Z"
  }, {
    "type" : "place",
    "startTime" : "20141121T214915-0600",
    "endTime" : "20141122T094620-0600",
    "place" : {
      "id" : 9869005,
      "name" : "Home",
      "type" : "home",
      "location" : {
        "lat" : 42.3754311174,
        "lon" : -71.1114458017
      }
    },
    "lastUpdate" : "20141122T175159Z"
  } ],
  "lastUpdate" : "20141217T041832Z"
}, {
  "date" : "20141122",
  "segments" : [ {
    "type" : "place",
    "startTime" : "20141121T214915-0600",
    "endTime" : "20141122T094620-0600",
    "place" : {
      "id" : 9869005,
      "name" : "Home",
      "type" : "home",
      "location" : {
        "lat" : 42.3754311174,
        "lon" : -71.1114458017
      }
    },
    "lastUpdate" : "20141122T175159Z"
  }, {
    "type" : "place",
    "startTime" : "20141122T101934-0600",
    "endTime" : "20141122T112205-0600",
    "place" : {
      "id" : 115780014,
      "name" : "Harvard Stadium",
      "type" : "foursquare",
      "foursquareId" : "4a6240d7f964a5208bc31fe3",
      "foursquareCategoryIds" : [ "4bf58dd8d48988d1b4941735" ],
      "location" : {
        "lat" : 42.366997,
        "lon" : -71.12680128
      }
    },
    "lastUpdate" : "20141129T021112Z"
  }, {
    "type" : "place",
    "startTime" : "20141122T112445-0600",
    "endTime" : "20141122T113214-0600",
    "place" : {
      "id" : 114227715,
      "type" : "unknown",
      "location" : {
        "lat" : 42.367892696,
        "lon" : -71.1283936368
      }
    },
    "lastUpdate" : "20141122T192252Z"
  }, {
    "type" : "place",
    "startTime" : "20141122T115616-0600",
    "endTime" : "20141122T145546-0600",
    "place" : {
      "id" : 110582799,
      "name" : "Tasty Burger",
      "type" : "foursquare",
      "foursquareId" : "50ce07b5e4b0ed7c4302d2bc",
      "foursquareCategoryIds" : [ "4bf58dd8d48988d16c941735" ],
      "location" : {
        "lat" : 42.37250286669323,
        "lon" : -71.12003183306106
      }
    },
    "lastUpdate" : "20141123T000057Z"
  }, {
    "type" : "place",
    "startTime" : "20141122T150113-0600",
    "endTime" : "20141122T172830-0600",
    "place" : {
      "id" : 10042715,
      "name" : "Border Cafe",
      "type" : "foursquare",
      "foursquareId" : "3fd66200f964a520bded1ee3",
      "foursquareCategoryIds" : [ "4bf58dd8d48988d1c1941735", "4bf58dd8d48988d17a941735" ],
      "location" : {
        "lat" : 42.3743468,
        "lon" : -71.120141
      }
    },
    "lastUpdate" : "20141123T013352Z"
  }, {
    "type" : "place",
    "startTime" : "20141122T174815-0600",
    "endTime" : "20141122T191413-0600",
    "place" : {
      "id" : 114315482,
      "name" : "11 Peabody Terrace",
      "type" : "foursquare",
      "foursquareId" : "5045207fe4b0c9395976e347",
      "foursquareCategoryIds" : [ "4d954b06a243a5684965b473" ],
      "location" : {
        "lat" : 42.36692807364663,
        "lon" : -71.11492552895656
      }
    },
    "lastUpdate" : "20141129T021156Z"
  }, {
    "type" : "place",
    "startTime" : "20141122T191821-0600",
    "endTime" : "20141122T192141-0600",
    "place" : {
      "id" : 92422030,
      "type" : "unknown",
      "location" : {
        "lat" : 42.3687046575,
        "lon" : -71.1146211906
      }
    },
    "lastUpdate" : "20141123T030529Z"
  }, {
    "type" : "place",
    "startTime" : "20141122T193026-0600",
    "endTime" : "20141122T222638-0600",
    "place" : {
      "id" : 110264566,
      "name" : "Ethan Bernstein Home",
      "type" : "home",
      "location" : {
        "lat" : 42.3717835414,
        "lon" : -71.1130447028
      }
    },
    "lastUpdate" : "20141123T210904Z"
  }, {
    "type" : "place",
    "startTime" : "20141122T223513-0600",
    "endTime" : "20141122T223646-0600",
    "place" : {
      "id" : 114563597,
      "type" : "unknown",
      "location" : {
        "lat" : 42.3748770989,
        "lon" : -71.1115588118
      }
    },
    "lastUpdate" : "20141123T210904Z"
  } ],
  "lastUpdate" : "20141129T021156Z"
}, {
  "date" : "20141123",
  "segments" : [ {
    "type" : "place",
    "startTime" : "20141123T134623-0600",
    "endTime" : "20141123T152816-0600",
    "place" : {
      "id" : 107975022,
      "name" : "One Western Avenue",
      "type" : "foursquare",
      "foursquareId" : "4aca3daaf964a520fcc020e3",
      "foursquareCategoryIds" : [ "4d954b06a243a5684965b473" ],
      "location" : {
        "lat" : 42.36460253791613,
        "lon" : -71.11879588132827
      }
    },
    "lastUpdate" : "20141123T224051Z"
  }, {
    "type" : "place",
    "startTime" : "20141123T155250-0600",
    "endTime" : "20141124T062804-0600",
    "place" : {
      "id" : 9869005,
      "name" : "Home",
      "type" : "home",
      "location" : {
        "lat" : 42.3754311174,
        "lon" : -71.1114458017
      }
    },
    "lastUpdate" : "20141124T142414Z"
  } ],
  "lastUpdate" : "20141124T142414Z"
}, {
  "date" : "20141124",
  "segments" : [ {
    "type" : "place",
    "startTime" : "20141123T155250-0600",
    "endTime" : "20141124T062804-0600",
    "place" : {
      "id" : 9869005,
      "name" : "Home",
      "type" : "home",
      "location" : {
        "lat" : 42.3754311174,
        "lon" : -71.1114458017
      }
    },
    "lastUpdate" : "20141124T142414Z"
  }, {
    "type" : "place",
    "startTime" : "20141124T064916-0600",
    "endTime" : "20141124T075957-0600",
    "place" : {
      "id" : 10115332,
      "name" : "Spangler Center",
      "type" : "foursquare",
      "foursquareId" : "4aeee0b0f964a52081d421e3",
      "foursquareCategoryIds" : [ "4bf58dd8d48988d1ab941735" ],
      "location" : {
        "lat" : 42.36522543920124,
        "lon" : -71.12218458495514
      }
    },
    "lastUpdate" : "20141129T021506Z"
  }, {
    "type" : "place",
    "startTime" : "20141124T080754-0600",
    "endTime" : "20141124T135532-0600",
    "place" : {
      "id" : 84119446,
      "name" : "Aldrich Hall",
      "type" : "foursquare",
      "foursquareId" : "4ac64359f964a5206eb320e3",
      "foursquareCategoryIds" : [ "4bf58dd8d48988d198941735" ],
      "location" : {
        "lat" : 42.36578780710847,
        "lon" : -71.12210915179602
      }
    },
    "lastUpdate" : "20141217T041832Z"
  }, {
    "type" : "place",
    "startTime" : "20141124T141427-0600",
    "endTime" : "20141124T142445-0600",
    "place" : {
      "id" : 24692766,
      "name" : "Starbucks",
      "type" : "foursquare",
      "foursquareId" : "49bc4e56f964a52028541fe3",
      "foursquareCategoryIds" : [ "4bf58dd8d48988d16d941735" ],
      "location" : {
        "lat" : 42.372485,
        "lon" : -71.119452
      }
    },
    "lastUpdate" : "20141124T220435Z"
  }, {
    "type" : "place",
    "startTime" : "20141124T143749-0600",
    "endTime" : "20141124T170325-0600",
    "place" : {
      "id" : 9869005,
      "name" : "Home",
      "type" : "home",
      "location" : {
        "lat" : 42.3754311174,
        "lon" : -71.1114458017
      }
    },
    "lastUpdate" : "20141124T233943Z"
  }, {
    "type" : "place",
    "startTime" : "20141124T171344-0600",
    "endTime" : "20141124T182650-0600",
    "place" : {
      "id" : 10042715,
      "name" : "Border Cafe",
      "type" : "foursquare",
      "foursquareId" : "3fd66200f964a520bded1ee3",
      "foursquareCategoryIds" : [ "4bf58dd8d48988d1c1941735", "4bf58dd8d48988d17a941735" ],
      "location" : {
        "lat" : 42.3743468,
        "lon" : -71.120141
      }
    },
    "lastUpdate" : "20141125T024812Z"
  }, {
    "type" : "place",
    "startTime" : "20141124T183724-0600",
    "endTime" : "20141125T065219-0600",
    "place" : {
      "id" : 9869005,
      "name" : "Home",
      "type" : "home",
      "location" : {
        "lat" : 42.3754311174,
        "lon" : -71.1114458017
      }
    },
    "lastUpdate" : "20141125T134353Z"
  } ],
  "lastUpdate" : "20141217T041832Z"
}, {
  "date" : "20141125",
  "segments" : [ {
    "type" : "place",
    "startTime" : "20141124T183724-0600",
    "endTime" : "20141125T065219-0600",
    "place" : {
      "id" : 9869005,
      "name" : "Home",
      "type" : "home",
      "location" : {
        "lat" : 42.3754311174,
        "lon" : -71.1114458017
      }
    },
    "lastUpdate" : "20141125T134353Z"
  }, {
    "type" : "place",
    "startTime" : "20141125T071424-0600",
    "endTime" : "20141125T151504-0600",
    "place" : {
      "id" : 84119446,
      "name" : "Aldrich Hall",
      "type" : "foursquare",
      "foursquareId" : "4ac64359f964a5206eb320e3",
      "foursquareCategoryIds" : [ "4bf58dd8d48988d198941735" ],
      "location" : {
        "lat" : 42.36578780710847,
        "lon" : -71.12210915179602
      }
    },
    "lastUpdate" : "20141217T041832Z"
  }, {
    "type" : "place",
    "startTime" : "20141125T152909-0600",
    "endTime" : "20141125T180033-0600",
    "place" : {
      "id" : 29923758,
      "name" : "Russell House Tavern",
      "type" : "foursquare",
      "foursquareId" : "4b96aba8f964a520e2dc34e3",
      "foursquareCategoryIds" : [ "4bf58dd8d48988d155941735" ],
      "location" : {
        "lat" : 42.37313766800413,
        "lon" : -71.11951231956482
      }
    },
    "lastUpdate" : "20141129T021035Z"
  }, {
    "type" : "place",
    "startTime" : "20141125T180400-0600",
    "endTime" : "20141125T190534-0600",
    "place" : {
      "id" : 27795038,
      "name" : "Orinoco",
      "type" : "foursquare",
      "foursquareId" : "4f106cace4b072565b8bd1b6",
      "foursquareCategoryIds" : [ "4bf58dd8d48988d152941735" ],
      "location" : {
        "lat" : 42.37190996862827,
        "lon" : -71.12049603929978
      }
    },
    "lastUpdate" : "20141129T021048Z"
  }, {
    "type" : "place",
    "startTime" : "20141125T192248-0600",
    "endTime" : "20141126T100343-0600",
    "place" : {
      "id" : 9869005,
      "name" : "Home",
      "type" : "home",
      "location" : {
        "lat" : 42.3754311174,
        "lon" : -71.1114458017
      }
    },
    "lastUpdate" : "20141126T204422Z"
  } ],
  "lastUpdate" : "20141217T041832Z"
}, {
  "date" : "20141126",
  "segments" : [ {
    "type" : "place",
    "startTime" : "20141125T192248-0600",
    "endTime" : "20141126T100343-0600",
    "place" : {
      "id" : 9869005,
      "name" : "Home",
      "type" : "home",
      "location" : {
        "lat" : 42.3754311174,
        "lon" : -71.1114458017
      }
    },
    "lastUpdate" : "20141126T204422Z"
  }, {
    "type" : "place",
    "startTime" : "20141126T101532-0600",
    "endTime" : "20141126T114238-0600",
    "place" : {
      "id" : 29923758,
      "name" : "Russell House Tavern",
      "type" : "foursquare",
      "foursquareId" : "4b96aba8f964a520e2dc34e3",
      "foursquareCategoryIds" : [ "4bf58dd8d48988d155941735" ],
      "location" : {
        "lat" : 42.37313766800413,
        "lon" : -71.11951231956482
      }
    },
    "lastUpdate" : "20141129T021002Z"
  }, {
    "type" : "place",
    "startTime" : "20141126T115345-0600",
    "endTime" : "20141126T125249-0600",
    "place" : {
      "id" : 115223594,
      "name" : "Harvard Art Museums",
      "type" : "foursquare",
      "foursquareId" : "4b1537fff964a52076a923e3",
      "foursquareCategoryIds" : [ "4bf58dd8d48988d18f941735" ],
      "location" : {
        "lat" : 42.37449113916232,
        "lon" : -71.11422920972477
      }
    },
    "lastUpdate" : "20141129T021008Z"
  }, {
    "type" : "place",
    "startTime" : "20141126T125708-0600",
    "endTime" : "20141127T052450-0600",
    "place" : {
      "id" : 9869005,
      "name" : "Home",
      "type" : "home",
      "location" : {
        "lat" : 42.3754311174,
        "lon" : -71.1114458017
      }
    },
    "lastUpdate" : "20141127T165103Z"
  } ],
  "lastUpdate" : "20141129T021008Z"
}, {
  "date" : "20141127",
  "segments" : [ {
    "type" : "place",
    "startTime" : "20141126T125708-0600",
    "endTime" : "20141127T052450-0600",
    "place" : {
      "id" : 9869005,
      "name" : "Home",
      "type" : "home",
      "location" : {
        "lat" : 42.3754311174,
        "lon" : -71.1114458017
      }
    },
    "lastUpdate" : "20141127T165103Z"
  }, {
    "type" : "place",
    "startTime" : "20141127T053812-0600",
    "endTime" : "20141127T061519-0600",
    "place" : {
      "id" : 10149905,
      "name" : "Boston Logan International Airport (BOS)",
      "type" : "foursquare",
      "foursquareId" : "452113b6f964a520bc3a1fe3",
      "foursquareCategoryIds" : [ "4bf58dd8d48988d1ed931735" ],
      "location" : {
        "lat" : 42.36650312404415,
        "lon" : -71.01667642593384
      }
    },
    "lastUpdate" : "20141129T020820Z"
  }, {
    "type" : "place",
    "startTime" : "20141127T093818-0600",
    "endTime" : "20141127T095834-0600",
    "place" : {
      "id" : 115779639,
      "name" : "ORD JetBlue Terminal",
      "type" : "foursquare",
      "foursquareId" : "4e41a0aa483b5377bc120e67",
      "foursquareCategoryIds" : [ "4bf58dd8d48988d1eb931735" ],
      "location" : {
        "lat" : 41.97743013671526,
        "lon" : -87.89759184513903
      }
    },
    "lastUpdate" : "20141129T020911Z"
  }, {
    "type" : "place",
    "startTime" : "20141127T100116-0600",
    "endTime" : "20141127T101135-0600",
    "place" : {
      "id" : 115779655,
      "name" : "Chicago O'Hare International Airport (ORD)",
      "type" : "foursquare",
      "foursquareId" : "4a5a77a4f964a52062ba1fe3",
      "foursquareCategoryIds" : [ "4bf58dd8d48988d1ed931735" ],
      "location" : {
        "lat" : 41.97727092004163,
        "lon" : -87.90440082550049
      }
    },
    "lastUpdate" : "20141129T020916Z"
  }, {
    "type" : "place",
    "startTime" : "20141127T110144-0600",
    "endTime" : "20141127T174817-0600",
    "place" : {
      "id" : 17698839,
      "name" : "Fitzsimmons Home",
      "type" : "home",
      "location" : {
        "lat" : 41.8771070061,
        "lon" : -88.311048021
      }
    },
    "lastUpdate" : "20141128T002905Z"
  }, {
    "type" : "place",
    "startTime" : "20141127T180006-0600",
    "endTime" : "20141127T211228-0600",
    "place" : {
      "id" : 115779749,
      "name" : "McKanna Home",
      "type" : "foursquare",
      "foursquareId" : "5291522b11d2bcc697a9a9c8",
      "foursquareCategoryIds" : [ "4bf58dd8d48988d103941735" ],
      "location" : {
        "lat" : 41.82354161276872,
        "lon" : -88.35793010648455
      }
    },
    "lastUpdate" : "20141129T020949Z"
  }, {
    "type" : "place",
    "startTime" : "20141127T212501-0600",
    "endTime" : "20141128T121851-0600",
    "place" : {
      "id" : 17698839,
      "name" : "Fitzsimmons Home",
      "type" : "home",
      "location" : {
        "lat" : 41.8771070061,
        "lon" : -88.311048021
      }
    },
    "lastUpdate" : "20141128T185639Z"
  } ],
  "lastUpdate" : "20141129T020949Z"
}, {
  "date" : "20141128",
  "segments" : [ {
    "type" : "place",
    "startTime" : "20141127T212501-0600",
    "endTime" : "20141128T121851-0600",
    "place" : {
      "id" : 17698839,
      "name" : "Fitzsimmons Home",
      "type" : "home",
      "location" : {
        "lat" : 41.8771070061,
        "lon" : -88.311048021
      }
    },
    "lastUpdate" : "20141128T185639Z"
  }, {
    "type" : "place",
    "startTime" : "20141128T123810-0600",
    "endTime" : "20141128T132428-0600",
    "place" : {
      "id" : 16536729,
      "name" : "Nosh",
      "type" : "foursquare",
      "foursquareId" : "4b5c8db0f964a5203b3629e3",
      "foursquareCategoryIds" : [ "4bf58dd8d48988d143941735", "4bf58dd8d48988d1e0931735" ],
      "location" : {
        "lat" : 41.88694340165634,
        "lon" : -88.30746173858643
      }
    },
    "lastUpdate" : "20141129T020732Z"
  }, {
    "type" : "place",
    "startTime" : "20141128T132428-0600",
    "endTime" : "20141128T133610-0600",
    "place" : {
      "id" : 115779427,
      "name" : "Cocoon",
      "type" : "foursquare",
      "foursquareId" : "4bd89049f645c9b66148a8e0",
      "foursquareCategoryIds" : [ "4bf58dd8d48988d1ff941735" ],
      "location" : {
        "lat" : 41.88548522,
        "lon" : -88.30872774124146
      }
    },
    "lastUpdate" : "20141129T020757Z"
  }, {
    "type" : "place",
    "startTime" : "20141128T133837-0600",
    "endTime" : "20141128T134733-0600",
    "place" : {
      "id" : 115779471,
      "name" : "Little Traveler",
      "type" : "foursquare",
      "foursquareId" : "4b981105f964a520122a35e3",
      "foursquareCategoryIds" : [ "4bf58dd8d48988d1f6941735" ],
      "location" : {
        "lat" : 41.88359349542873,
        "lon" : -88.30923536625339
      }
    },
    "lastUpdate" : "20141129T020810Z"
  }, {
    "type" : "place",
    "startTime" : "20141128T135942-0600",
    "endTime" : "20141129T125252-0600",
    "place" : {
      "id" : 17698839,
      "name" : "Fitzsimmons Home",
      "type" : "home",
      "location" : {
        "lat" : 41.8771070061,
        "lon" : -88.311048021
      }
    },
    "lastUpdate" : "20141129T205314Z"
  } ],
  "lastUpdate" : "20141129T205314Z"
}, {
  "date" : "20141129",
  "segments" : [ {
    "type" : "place",
    "startTime" : "20141128T135942-0600",
    "endTime" : "20141129T125252-0600",
    "place" : {
      "id" : 17698839,
      "name" : "Fitzsimmons Home",
      "type" : "home",
      "location" : {
        "lat" : 41.8771070061,
        "lon" : -88.311048021
      }
    },
    "lastUpdate" : "20141129T205314Z"
  }, {
    "type" : "place",
    "startTime" : "20141129T125523-0600",
    "endTime" : "20141129T141419-0600",
    "place" : {
      "id" : 9059210,
      "name" : "Wildwood",
      "type" : "foursquare",
      "foursquareId" : "4af254bcf964a52071e721e3",
      "foursquareCategoryIds" : [ "4bf58dd8d48988d14e941735", "4bf58dd8d48988d1cc941735" ],
      "location" : {
        "lat" : 41.88296963158768,
        "lon" : -88.30879211425781
      }
    },
    "lastUpdate" : "20141129T205314Z"
  }, {
    "type" : "place",
    "startTime" : "20141129T142706-0600",
    "endTime" : "20141129T151948-0600",
    "place" : {
      "id" : 115707025,
      "name" : "Le Berry Bistro",
      "type" : "foursquare",
      "foursquareId" : "4f32501019836c91c7cb6119",
      "foursquareCategoryIds" : [ "4d4b7105d754a06374d81259" ],
      "location" : {
        "lat" : 41.885564,
        "lon" : -88.308396
      }
    },
    "lastUpdate" : "20141129T222652Z"
  }, {
    "type" : "place",
    "startTime" : "20141129T151948-0600",
    "endTime" : "20141129T154228-0600",
    "place" : {
      "id" : 36798961,
      "name" : "Graham's 318",
      "type" : "foursquare",
      "foursquareId" : "4a997135f964a520582e20e3",
      "foursquareCategoryIds" : [ "4bf58dd8d48988d1e0931735" ],
      "location" : {
        "lat" : 41.88416378545351,
        "lon" : -88.3092212677002
      }
    },
    "lastUpdate" : "20141129T222652Z"
  }, {
    "type" : "place",
    "startTime" : "20141129T155532-0600",
    "endTime" : "20141129T162150-0600",
    "place" : {
      "id" : 17698839,
      "name" : "Fitzsimmons Home",
      "type" : "home",
      "location" : {
        "lat" : 41.8771070061,
        "lon" : -88.311048021
      }
    },
    "lastUpdate" : "20141130T030528Z"
  }, {
    "type" : "place",
    "startTime" : "20141129T162647-0600",
    "endTime" : "20141129T163740-0600",
    "place" : {
      "id" : 9104980,
      "name" : "Metra - Geneva Station",
      "type" : "foursquare",
      "foursquareId" : "4b33b685f964a5208c1d25e3",
      "location" : {
        "lat" : 41.8816436553268,
        "lon" : -88.30999374389648
      }
    },
    "lastUpdate" : "20141130T030528Z"
  }, {
    "type" : "place",
    "startTime" : "20141129T174503-0600",
    "endTime" : "20141129T175712-0600",
    "place" : {
      "id" : 18571196,
      "name" : "Gate L2C",
      "type" : "foursquare",
      "foursquareId" : "4d7a126b0ceba1cd606cbb58",
      "foursquareCategoryIds" : [ "4bf58dd8d48988d1f0931735" ],
      "location" : {
        "lat" : 41.97721309455001,
        "lon" : -87.89900422096252
      }
    },
    "lastUpdate" : "20141130T043938Z"
  }, {
    "type" : "place",
    "startTime" : "20141129T203313-0600",
    "endTime" : "20141129T203557-0600",
    "place" : {
      "id" : 69694458,
      "name" : "Gate C29",
      "type" : "foursquare",
      "foursquareId" : "4bc635c4f360ef3bd055db2d",
      "foursquareCategoryIds" : [ "4bf58dd8d48988d1f0931735" ],
      "location" : {
        "lat" : 42.36546531336081,
        "lon" : -71.0145628452301
      }
    },
    "lastUpdate" : "20141130T043938Z"
  }, {
    "type" : "place",
    "startTime" : "20141129T213912-0600",
    "endTime" : "20141130T192238-0600",
    "place" : {
      "id" : 9869005,
      "name" : "Home",
      "type" : "home",
      "location" : {
        "lat" : 42.3754311174,
        "lon" : -71.1114458017
      }
    },
    "lastUpdate" : "20141201T022727Z"
  } ],
  "lastUpdate" : "20141201T022727Z"
}, {
  "date" : "20141130",
  "segments" : [ {
    "type" : "place",
    "startTime" : "20141129T213912-0600",
    "endTime" : "20141130T192238-0600",
    "place" : {
      "id" : 9869005,
      "name" : "Home",
      "type" : "home",
      "location" : {
        "lat" : 42.3754311174,
        "lon" : -71.1114458017
      }
    },
    "lastUpdate" : "20141201T022727Z"
  }, {
    "type" : "place",
    "startTime" : "20141130T192929-0600",
    "endTime" : "20141201T062655-0600",
    "place" : {
      "id" : 9869005,
      "name" : "Home",
      "type" : "home",
      "location" : {
        "lat" : 42.3754311174,
        "lon" : -71.1114458017
      }
    },
    "lastUpdate" : "20141201T162852Z"
  } ],
  "lastUpdate" : "20141201T162852Z"
} ]